key,latitude,longitude,name
cafe,35.684236,139.7390476,スターバックス
cafe,35.7482853,139.7196284,珈琲館
cafe,35.7018499,139.7424458,スターバックス
cafe,35.6812934,139.6981229,ドトールコーヒーショップ
cafe,35.6749577,139.7124612,自家焙煎珈琲豆 「ルンバミーア」
cafe,35.6439454,139.7486585,エクセルシオール
cafe,35.5541666,139.7409292,コーヒー軽食チェスカ
cafe,35.5525352,139.7405711,カフェ・ベローチェ
cafe,35.5521292,139.7409686,ドトールコーヒーショップ
cafe,35.6947422,139.7453653,attic room YASUKUNI-GAIEN/cafe&dining
cafe,35.708607,139.7222682,CAT'S CRADLE
cafe,35.7085991,139.7225562,ビレン
cafe,35.6690479,139.6500268,スターバックス
cafe,34.7794509,139.363812,季まま亭
cafe,35.7202072,139.7636211,芋甚
cafe,35.7196021,139.7646513,喫茶・ギャラリー　りんごや
cafe,35.7197603,139.7648584,NaCaSa
cafe,35.720447,139.7649404,カフェ・コパン
cafe,35.720653,139.7655874,Couzt Cafe
cafe,35.7268789,139.7647679,やなか珈琲店
cafe,35.6630487,139.667211,スターバックス
cafe,35.5640336,139.7157299,たちばな書店蒲田店
cafe,35.659449,139.686303,イタリアントマト
cafe,35.7173569,139.813897,まとい
cafe,35.690629,139.743881,Cafe Hatopoppo
cafe,35.6874265,139.7425804,カフェ・ベローチェ
cafe,35.691947,139.7441204,三番町カフェ
cafe,35.6876468,139.7425487,珈琲館
cafe,35.7010661,139.759867,A&A認定ベクターワークスカフェジャパン
cafe,35.6695915,139.7653106,カフェ・ベローチェ
cafe,35.7526948,139.7100099,カフェ・ベローチェ
cafe,35.754993,139.7090461,モリバコーヒー 板橋仲宿店
cafe,35.7001644,139.7618745,スターバックス
cafe,35.6346264,139.5891136,Push Pull
cafe,35.6597024,139.7432472,Cafe FIRST
cafe,35.6869316,139.781525,スターバックス
cafe,35.687511,139.778414,ドトールコーヒーショップ
cafe,35.5948526,139.4584066,Ayers Rock
cafe,35.7324907,139.5999287,ノア
cafe,35.6630838,139.7447165,スターバックス
cafe,35.6628654,139.7461245,ドトールコーヒーショップ
cafe,35.7002854,139.7428114,カナルカフェ
cafe,35.6999854,139.7623512,エクセルシオール カフェ
cafe,35.6466005,139.7091535,ドトールコーヒーショップ
cafe,35.6670002,139.7067806,スターバックス
cafe,35.6671874,139.6494595,スプーンハウス
cafe,35.6696029,139.5300477,プロペラカフェ
cafe,35.7233858,139.5139859,杏's cafe
cafe,35.655786,139.7043997,カフェ・ベローチェ
cafe,35.6559902,139.7045379,ドトールコーヒーショップ
cafe,35.6561014,139.6980894,カフェ・ド・クリエ
cafe,35.7412061,139.5021712,ドトールコーヒーショップ
cafe,35.6471207,139.7440655,ドトールコーヒーショップ
cafe,35.7579152,139.6204189,ドトールコーヒーショップ
cafe,35.7023946,139.5794323,ルノアール
cafe,35.6616055,139.4128278,ドトールコーヒーショップ
cafe,35.63032,139.269757,Takao Coffee
cafe,35.6618449,139.6975425,ドトールコーヒーショップ
cafe,35.6603765,139.699818,エクセルシオール カフェ
cafe,35.6616777,139.7136788,ドトールコーヒーショップ
cafe,35.6613378,139.7143655,スターバックス
cafe,35.629303,139.5762953,サンマルクカフェ
cafe,35.5765265,139.7356845,撫愛荘
cafe,35.6588894,139.6255903,コロンボ (Colombo)
cafe,35.7046288,139.5785893,サンマルクカフェ
cafe,35.5424477,139.4480946,Sepia Cafe
cafe,35.6398866,139.599117,スターバックス
cafe,35.6425407,139.6086627,ドトールコーヒーショップ
cafe,35.7035467,139.5777558,近江屋
cafe,35.7545887,139.7369521,Pronto
cafe,35.7537343,139.7372697,Beck's Coffee Shop
cafe,35.659264,139.6822403,Dora
cafe,35.6593588,139.6818815,Colorado
cafe,35.5555517,139.4786701,暖 (Dan)
cafe,35.7046427,139.5770955,カフェ・ベローチェ
cafe,35.6880642,139.6000169,ドトールコーヒーショップ
cafe,35.6992167,139.7451955,ルノアール
cafe,35.6993645,139.7449293,ドトールコーヒーショップ
cafe,35.6525278,139.7353711,憩
cafe,35.6523828,139.7334443,Cafe Kariz
cafe,35.7064225,139.7744753,ドトールコーヒーショップ
cafe,35.7077954,139.6158118,石橋亭
cafe,35.6078539,139.6681584,エクセルシオール カフェ
cafe,35.6078873,139.6692216,スターバックス
cafe,35.6079285,139.6699428,モリバコーヒー
cafe,35.7316873,139.7111647,伯爵
cafe,35.6568792,139.5899891,小昼 (Kobilu)
cafe,35.7541737,139.7377658,スターバックス
cafe,35.7018039,139.7393725,veloce cV
cafe,35.7037266,139.6211503,ドトールコーヒーショップ
cafe,35.7029836,139.6000467,ドトールコーヒーショップ
cafe,35.6950077,139.5989987,コロナ
cafe,35.706005,139.7086246,タリーズコーヒー
cafe,35.7121467,139.7069442,Cafe CottonClub
cafe,35.7120694,139.7071239,ドトールコーヒーショップ
cafe,35.7122578,139.7067833,スターバックス
cafe,35.7128654,139.7055535,サンマルクカフェ
cafe,35.712836,139.7054341,まんがの時間
cafe,35.7130973,139.7051176,銀座コージーコーナー
cafe,35.7127598,139.704494,エクセルシオール カフェ
cafe,35.6648344,139.7123995,Délifrance
cafe,35.7588523,139.6288086,スターバックス
cafe,35.6687972,139.741071,ドトールコーヒーショップ
cafe,35.7026017,139.7666098,ドトールコーヒーショップ
cafe,35.7098848,139.6653703,サーティーワン アイスクリーム
cafe,35.6924718,139.674549,珈琲BELL
cafe,35.6834053,139.7846391,カフェ マスターズ
cafe,35.6827825,139.7851858,シェルブール
cafe,35.6602818,139.7428428,ツナグカフェ
cafe,35.6467756,139.7461783,エクセルシオール カフェ
cafe,35.7137823,139.7927508,ブロンディ
cafe,35.7184982,139.7876566,喫茶とみ一
cafe,35.7127958,139.7948563,金龍茶屋
cafe,35.7127759,139.7964014,キレット
cafe,35.7152975,139.792903,喫茶ブラザー
cafe,35.7214131,139.7626739,ミルクホール
cafe,35.6700139,139.7415338,スターバックス
cafe,35.6701691,139.7412278,カフェ・ド・クリエ
cafe,35.6792756,139.7986192,Sacra Cafe
cafe,35.6733843,139.7372059,エクセルシオール カフェ
cafe,35.674914,139.736123,Moriva Coffee
cafe,35.6939279,139.7009038,ドトールコーヒーショップ
cafe,35.7011575,139.7026171,TAK CAFE
cafe,35.6587259,139.7428724,New Ran
cafe,35.651681,139.7448197,カフェ・ド・クリエ
cafe,35.6727258,139.7672991,サンマルクカフェ
cafe,35.6727692,139.7672366,ドトールコーヒーショップ
cafe,35.7096177,139.6549198,ufotable cafe
cafe,35.6097065,139.7117138,ドトールコーヒーショップ
cafe,35.6955056,139.7706442,万惣
cafe,35.6955922,139.7688481,カフェ・ベローチェ
cafe,35.6553878,139.7961696,ドトールコーヒーショップ
cafe,35.6556337,139.7964141,スターバックス
cafe,35.6553241,139.7963653,Pronto
cafe,35.6440736,139.6991475,Segafredo
cafe,35.6443368,139.6796809,Olu olu cafe
cafe,35.6587425,139.7052337,スターバックス
cafe,35.5748339,139.6803712,ドトールコーヒーショップ
cafe,35.6355405,139.6142403,ダ・ノンナ
cafe,35.7279206,139.7118991,スターバックス
cafe,35.7330679,139.7093577,モリバコーヒー
cafe,35.7042482,139.5801073,エクセルシオール カフェ
cafe,35.7043361,139.5800763,イタリアントマト
cafe,35.6686598,139.7655914,タリーズコーヒー
cafe,35.6716935,139.7665908,スターバックス
cafe,35.6702592,139.7650197,トリコロール本店
cafe,35.6754844,139.7695215,ドトールコーヒーショップ
cafe,35.7094705,139.8005757,23番地カフェ
cafe,35.6497866,139.4467636,スターバックス
cafe,35.7001758,139.7988497,came cafe
cafe,35.698356,139.797125,茶房
cafe,35.711391,139.7747048,Pronto
cafe,35.7306154,139.4763583,KURICCHI
cafe,35.6848003,139.7753701,カフェ・ベローチェ
cafe,35.6847824,139.7748973,スターバックス
cafe,35.6525671,139.7537812,タリーズコーヒー
cafe,35.7229088,139.513727,Cafe&deli hug
cafe,35.6998738,139.4480141,freshly roasted Coffee
cafe,35.7054853,139.6195424,ドトールコーヒーショップ
cafe,35.7060871,139.6181981,カフェ・ベローチェ
cafe,35.7065046,139.6173752,３米３
cafe,35.6574776,139.704091,カフェ・ド・クリエ
cafe,35.6564007,139.7054779,スターバックス
cafe,35.6565383,139.7053018,上島珈琲店
cafe,35.6474232,139.7111083,The Alley Lujiaoxiang
cafe,35.6469752,139.7116165,ルノワール
cafe,35.6476928,139.7447494,サンマルクカフェ
cafe,35.6706959,139.7479687,エキスパート倶楽部
cafe,35.6699641,139.7470805,Le Petit Tonneau
cafe,35.6695867,139.7510881,上島珈琲店
cafe,35.6705283,139.7468176,Delirium Cafe Tokyo
cafe,35.6661722,139.7579385,カフェ・ド・クリエ
cafe,35.7310617,139.7102106,Beck's Coffee Shop
cafe,35.7149275,139.6871038,MIRAGE
cafe,35.6442736,139.6699545,Cafe Colorado
cafe,35.7088036,139.7753352,丘
cafe,35.7111727,139.7752834,まんがDoor
cafe,35.712419,139.776274,Beck's Coffee Shop
cafe,35.7789958,139.7214329,梅の木
cafe,35.752984,139.7385915,ドトールコーヒーショップ
cafe,35.7069524,139.6200326,INAZUMA CAFE
cafe,35.6968137,139.7978782,Cafe Jive
cafe,35.5468648,139.7206641,WORLD　BEANS
cafe,35.5473146,139.7201545,ドリーム
cafe,35.6787838,139.7819066,カフェ・ベローチェ
cafe,35.6793997,139.7720539,サンマルクカフェ
cafe,35.6457428,139.8260788,シャノワール
cafe,35.6457823,139.8266873,ドトールコーヒーショップ
cafe,35.7060518,139.6225298,コム デ ジュルノー
cafe,35.7072524,139.623244,カフェ・アルック
cafe,35.6234199,139.4256082,サンマルクカフェ
cafe,35.6245204,139.4255558,自遊空間
cafe,35.5890411,139.7310266,タリーズコーヒー
cafe,35.7300095,139.7481127,ドトールコーヒーショップ
cafe,35.7032377,139.6206118,CatRoomこるね
cafe,35.6836431,139.7417723,麹町カフェ
cafe,35.6621591,139.6674484,シャノワール
cafe,35.6726994,139.7947911,カフェ東亜サプライ
cafe,35.656911,139.7522494,スターバックス
cafe,35.6567309,139.7538194,ルノアール
cafe,35.7060861,139.6225415,カフェクレエル
cafe,35.6845262,139.7333836,タリーズコーヒー
cafe,35.682797,139.770884,エクセルシオール カフェ
cafe,35.6586323,139.7787261,フェアレディ
cafe,35.6632771,139.7091411,EYES CAFE
cafe,35.6898451,139.4276544,ノンノン
cafe,35.7049339,139.6204522,ドトールコーヒーショップ
cafe,35.7355737,139.4770574,gico gico
cafe,35.6879473,139.7002831,スターバックス
cafe,35.6870109,139.7007579,クリスピー・クリーム・ドーナツ
cafe,35.6958924,139.7920522,両国テラス
cafe,35.6481197,139.7447869,ろむれざん
cafe,35.6499729,139.7450255,タリーズコーヒー
cafe,35.6490782,139.7449007,カフェ・ベローチェ
cafe,35.6564588,139.7356194,RACCOON
cafe,35.7032367,139.6208432,F.イワモリ (Cafe candle F iwamori )
cafe,35.7001275,139.4356092,ビアンカ
cafe,35.7499138,139.5863088,ドトールコーヒーショップ
cafe,35.6569628,139.7391844,Milieu
cafe,35.656727,139.738985,Togu
cafe,35.6884431,139.6976605,Pronto
cafe,35.6820885,139.6264781,函館 美鈴
cafe,35.7023539,139.6360611,好茶
cafe,35.6595614,139.7011607,SCRAMBLE
cafe,35.6597052,139.7008913,星乃珈琲
cafe,35.7045776,139.6189752,Beck's Coffee Shop
cafe,35.6705062,139.741266,ドトールコーヒーショップ
cafe,35.6716892,139.7398533,のぶ
cafe,35.7120933,139.7792456,ドトールコーヒーショップ
cafe,35.64554,139.6973432,上島珈琲店 (Ueshima Coffee Ten)
cafe,35.6985283,139.784817,コーヒーの店 杉
cafe,35.701258,139.5437048,Library Cafe
cafe,35.6923235,139.6375577,Hina-Hana Cafe
cafe,35.6943626,139.641039,TeaRoom けやき
cafe,35.7025545,139.5430907,ドトールコーヒーショップ
cafe,35.651112,139.6235135,Ami
cafe,35.7040339,139.66534,風月堂
cafe,35.7068537,139.6654402,スターバックス
cafe,35.7006527,139.7424064,ドトールコーヒーショップ
cafe,35.5763912,139.4986494,シュルツ カフェ
cafe,35.6363646,139.5880135,ドトールコーヒーショップ
cafe,35.6437509,139.551295,バロン
cafe,35.7757708,139.3055483,珈琲館 羽村店
cafe,35.7080763,139.7607602,スターバックス
cafe,35.7047036,139.6193545,スターバックス
cafe,35.6475972,139.7475078,JUSCHE
cafe,35.6956743,139.7587331,TAM TAM
cafe,35.6955716,139.758563,さぼうる2
cafe,35.6955733,139.7586758,さぼうる
cafe,35.6942138,139.7629661,スターバックス
cafe,35.6943665,139.7655667,EXCELCIOR CAFE
cafe,35.6946376,139.7661051,BLENZ coffee
cafe,35.6954613,139.7671551,タリーズコーヒー
cafe,35.6951594,139.7676302,ドトールコーヒーショップ
cafe,35.6949864,139.7669993,ルノアール
cafe,35.6968096,139.7693663,80's Cafe
cafe,35.7067916,139.6665622,ルノアール
cafe,35.6343708,139.716299,MORIVA COFFEE
cafe,35.6342631,139.7160394,スターバックス
cafe,35.6601017,139.6960351,タリーズコーヒー
cafe,35.6603261,139.6966364,スターバックス
cafe,35.6703394,139.7442789,Cafe Retreat
cafe,35.6702717,139.7449814,swan
cafe,35.667334,139.757236,Pronto
cafe,35.6673494,139.7571847,驛舎珈琲店
cafe,35.6680267,139.7560503,エクセルシオール カフェ
cafe,35.6705289,139.7421136,タリーズコーヒー
cafe,35.6591579,139.6987844,miami villa
cafe,35.6592134,139.6989601,キーフェル
cafe,35.6578405,139.6912391,cafe cafe
cafe,35.6687879,139.6500533,ドトールコーヒーショップ
cafe,35.5916953,139.6809419,ドトールコーヒーショップ
cafe,35.6461971,139.7470967,ドトールコーヒーショップ
cafe,35.7012275,139.544916,スターバックス
cafe,35.656693,139.7542923,上島珈琲店
cafe,35.6562919,139.7524701,タリーズコーヒー
cafe,35.6685256,139.7466267,スターバックス
cafe,35.6680196,139.7460263,珈琲大使館
cafe,35.6655408,139.6634111,下北沢オープンソース Cafe
cafe,35.6614789,139.6980254,サンマルクカフェ
cafe,35.6617474,139.6979233,マンボー
cafe,35.6606086,139.6979199,グランサイバーカフェ
cafe,35.6602538,139.6983804,ドトールコーヒーショップ
cafe,35.6602856,139.6991259,茶房 椿屋
cafe,35.7026499,139.579196,きゃりこ
cafe,35.6625166,139.697633,モボモガ
cafe,35.6625415,139.6974535,139 A Carte Dinner
cafe,35.6626688,139.6973071,Muse
cafe,35.6636525,139.6987574,Kahemi cafe
cafe,35.6636301,139.6993245,Kawara Cafe
cafe,35.6616386,139.6996287,Miyama
cafe,35.6628737,139.6972105,Regan
cafe,35.6641723,139.6991507,shiroichi
cafe,35.6626172,139.6972008,smile
cafe,35.6621973,139.6995238,エクセルシオール カフェ
cafe,35.6635476,139.6989761,サンマルクカフェ
cafe,35.6640377,139.6991843,スターバックス
cafe,35.6000977,139.3796053,スターバックス
cafe,35.5430536,139.7898657,ブルーコーナー
cafe,35.706538,139.7176026,Le Cafe Retro
cafe,35.644565,139.537317,喫茶 みよし
cafe,35.6462964,139.7465072,コージーコーナー
cafe,35.6720343,139.6017763,フォレスト
cafe,35.6613772,139.7027242,Freeman Cafe
cafe,35.6613618,139.7026411,ルノアール
cafe,35.6599468,139.7037449,まんぼー
cafe,35.6597795,139.7029981,エクセルシオール
cafe,35.6601863,139.7026241,ドトールコーヒーショップ
cafe,35.6598644,139.7033865,集
cafe,35.7773208,139.6326618,MOSCO
cafe,35.6914213,139.7075234,ルノアール
cafe,35.7778364,139.6312383,カフェ・ディ・エスプレッソ珈琲館
cafe,35.7777265,139.6302043,ドトールコーヒーショップ
cafe,35.7776895,139.6307863,サンマルクカフェ
cafe,35.6565734,139.700956,shibuya cage
cafe,35.7778503,139.6320248,不二越
cafe,35.7711692,139.6449092,ドトールコーヒーショップ
cafe,35.6865784,139.6978317,カフェ・ド・クリエ
cafe,35.7558108,139.6957809,ドトールコーヒーショップ
cafe,35.7560262,139.6955421,ドトール
cafe,35.7119954,139.565469,Esprit de Paris
cafe,35.7275826,139.6166653,むさしの森珈琲
cafe,35.5441497,139.4457422,宮越屋珈琲
cafe,35.6277493,139.7410741,エクセルシオール カフェ
cafe,35.668536,139.7401178,NEW SEM
cafe,35.6679506,139.7394935,野瀬園
cafe,35.6699524,139.6006465,葉山コーヒー(Hayama cafe)
cafe,35.7350195,139.4909143,ラグラス (Laguras)
cafe,35.6890875,139.6982103,ルノアール
cafe,35.7018244,139.5451011,エクセルシオール カフェ
cafe,35.7114386,139.5376699,ゆう遊空間
cafe,35.6784943,139.6924747,Anea Cafe
cafe,35.7939965,139.3159306,スターバックス
cafe,35.7036913,139.5607736,ドトールコーヒーショップ
cafe,35.7031296,139.5604265,Fresh Table Cafe
cafe,35.6475124,139.6780492,Siry
cafe,35.6568759,139.7557105,ドトールコーヒーショップ
cafe,35.7037074,139.7740525,ASAN
cafe,35.7349672,139.7470739,ドトールコーヒーショップ
cafe,35.7330325,139.7485229,東城
cafe,35.7368088,139.7463527,アルプス
cafe,35.7385173,139.7460216,百塔珈琲
cafe,35.776081,139.6953402,ドトールコーヒーショップ
cafe,35.7276148,139.7456879,八百コーヒー店
cafe,35.735356,139.7477781,すぎ
cafe,35.6847981,139.7327952,エクセルシオール カフェ
cafe,35.6933617,139.472909,おたカフェ
cafe,35.6266016,139.6373715,a2
cafe,35.6212163,139.6729062,グリーンカフェ 八雲
cafe,35.6259808,139.6710396,オニバスコーヒー八雲
cafe,35.6436463,139.7361211,白金珈琲
cafe,35.6296494,139.733313,エーデルワイス
cafe,35.6088045,139.647198,ドトールコーヒーショップ
cafe,35.6490445,139.6999632,スターバックス
cafe,35.6812845,139.6857837,ドトールコーヒーショップ
cafe,35.6820287,139.6851697,珈琲館
cafe,35.633225,139.5167485,Green World Cafe
cafe,35.6787503,139.6361601,EAGA
cafe,35.6800555,139.6371698,珠杏
cafe,35.6352893,139.7150058,やなか珈琲店
cafe,35.6306407,139.7377768,Pronto
cafe,35.7027186,139.541924,Bakery Crown Cafe
cafe,35.6559677,139.5321742,カトレア
cafe,35.6390384,139.7353964,Maho's Table
cafe,35.6362174,139.7332897,cafe 10
cafe,35.6306102,139.7371833,タリーズコーヒー
cafe,35.6614793,139.5857584,スターバックス
cafe,35.7784413,139.7200413,スターバックス
cafe,35.6250413,139.4736967,リトルバード
cafe,35.667574,139.5461043,深山
cafe,35.6667787,139.5492076,万葉
cafe,35.5639528,139.7459893,珈琲野郎
cafe,35.7138216,139.759525,スターバックス
cafe,35.6554827,139.7038045,渋谷珈琲研究所
cafe,35.7865752,139.3103153,パセリ
cafe,35.7935017,139.2989242,珈夢異
cafe,35.7098312,139.5717728,Cafe de Leger
cafe,35.6524697,139.543244,貢茶
cafe,35.602559,139.3688905,喫茶アルル
cafe,35.627809,139.773002,スターバックス
cafe,35.7109827,139.7831377,カフェ・ベローチェ
cafe,35.6992791,139.7723868,エクセルシオール カフェ
cafe,35.6694356,139.8184986,カフェ・ベローチェ
cafe,35.6444535,139.6697533,スターバックス
cafe,35.6264063,139.6264765,スターバックス
cafe,35.6395267,139.6319241,スターバックス
cafe,35.6133051,139.6267188,スターバックス
cafe,35.6431261,139.6090472,ドトールコーヒーショップ
cafe,35.6404595,139.5984348,ドトールコーヒーショップ
cafe,35.6976453,139.647705,ドトールコーヒーショップ
cafe,35.6835188,139.6586128,ドトールコーヒーショップ
cafe,35.682549,139.6273052,ドトールコーヒーショップ
cafe,35.7042244,139.5997243,ドトールコーヒーショップ
cafe,35.7234627,139.6253473,ドトールコーヒーショップ
cafe,35.7018733,139.6366931,ドトールコーヒーショップ
cafe,35.6224112,139.6843962,スターバックス
cafe,35.6290558,139.6851306,ドトールコーヒーショップ
cafe,35.6291865,139.6842313,スターバックス
cafe,35.6291255,139.6848697,ドトールコーヒーショップ
cafe,35.6087388,139.6674002,スターバックス
cafe,35.6434627,139.6988317,スターバックス
cafe,35.7345948,139.7367802,スカイ
cafe,35.6129267,139.6262814,ル サロンド ニナス
cafe,35.612943,139.6275058,スターバックス
cafe,35.6433258,139.6698902,ドトールコーヒーショップ
cafe,35.7352973,139.7353144,亜沙美亭
cafe,35.6688438,139.6010546,ドトールコーヒーショップ
cafe,35.6474003,139.6243198,ドトールコーヒーショップ
cafe,35.7358057,139.7346023,ALPS Cafe
cafe,35.7369138,139.7330119,貴族
cafe,35.7371533,139.7326913,巣鴨はち八
cafe,35.7384222,139.7309357,巣鴨桜宮
cafe,35.6505683,139.6839309,タリーズコーヒー
cafe,35.6318651,139.6449521,タリーズコーヒー
cafe,35.631481,139.6443932,ドトールコーヒーショップ
cafe,35.6513334,139.6355599,タリーズコーヒー
cafe,35.6363904,139.6189838,タリーズコーヒー
cafe,35.7007746,139.5781929,スターバックス
cafe,35.705315,139.5776516,スターバックス
cafe,35.703983,139.5805023,スターバックス
cafe,35.7031052,139.5792175,スターバックス
cafe,35.7373231,139.7327881,プチボア
cafe,35.6452737,139.6976268,スターバックス
cafe,35.6342143,139.7133755,Blue Bottle Coffee
cafe,35.6775011,139.5667688,スターバックス
cafe,35.7333626,139.7382221,銀座コージーコーナー
cafe,35.7332309,139.7384072,サンマルクカフェ
cafe,35.6560148,139.7592914,タリーズコーヒー
cafe,35.7466854,139.7195121,COLORADO
cafe,35.6060224,139.7126976,ドトールコーヒーショップ
cafe,35.7461405,139.7194596,Beck's Coffee Shop
cafe,35.610322,139.6944385,ドトールコーヒーショップ
cafe,35.6446154,139.6984764,ドトールコーヒーショップ
cafe,35.7411526,139.616081,ドトールコーヒーショップ
cafe,35.7634842,139.6759149,ドトールコーヒーショップ
cafe,35.7569672,139.8758823,かんたあれ
cafe,35.6760353,139.6438788,ドトールコーヒーショップ
cafe,35.6851096,139.7879843,ドトールコーヒーショップ
cafe,35.6872108,139.7753044,スターバックス
cafe,35.6793845,139.7807793,スターバックス
cafe,35.6765852,139.7695113,スターバックス
cafe,35.6609312,139.7279294,上島珈琲店
cafe,35.6722427,139.7676164,スターバックス
cafe,35.6712526,139.7603141,スターバックス
cafe,35.6679087,139.7673177,スターバックス
cafe,35.6590538,139.7278157,フィヨルド
cafe,35.642972,139.671113,上島珈琲店
cafe,35.6398931,139.5993893,上島珈琲店
cafe,35.6554835,139.7363936,上島珈琲店
cafe,35.6555641,139.7368295,タリーズコーヒー
cafe,35.6557467,139.7360521,スターバックス
cafe,35.7340472,139.7383622,上島珈琲店
cafe,35.7169371,139.7283385,上島珈琲店
cafe,35.706876,139.6872325,上島珈琲店 (Ueshima Coffee Ten)
cafe,35.665743,139.8353578,上島珈琲店 (Ueshima Coffee Ten)
cafe,35.683026,139.7717219,上島珈琲店
cafe,35.5881759,139.727127,上島珈琲店
cafe,35.7055119,139.6492949,上島珈琲店
cafe,35.608712,139.6689377,上島珈琲店 (Ueshima Coffee Ten)
cafe,35.6909687,139.7571269,上島珈琲店
cafe,35.6827599,139.7741994,上島珈琲店
cafe,35.6625064,139.7524583,上島珈琲店
cafe,35.6776514,139.7708621,上島珈琲店
cafe,35.6504765,139.721764,スターバックス
cafe,35.6505469,139.7219593,上島珈琲店
cafe,35.7719337,139.6997947,LEAVES
cafe,35.6558617,139.6946747,MORIVA COFFEE
cafe,35.655994,139.695458,FabCafe
cafe,35.7318647,139.7083135,エクセルシオール カフェ
cafe,35.7318995,139.7069869,ドトールコーヒーショップ
cafe,35.7031238,139.5813505,タリーズコーヒー
cafe,35.6960997,139.5480144,タリーズコーヒー
cafe,35.6790893,139.740609,Excelsior Caffé
cafe,35.6863564,139.7826253,カフェ・ド・クリエ
cafe,35.7136643,139.703282,ドトールコーヒーショップ
cafe,35.7135838,139.7034323,カフェ・ド・クリエ
cafe,35.6873212,139.6952137,カフェ・ド・クリエ
cafe,35.687196,139.6946735,ドトールコーヒーショップ
cafe,35.7305027,139.7145445,カフェ・ド・クリエ
cafe,35.5897337,139.7282055,カフェ・ド・クリエ
cafe,35.6666103,139.7555952,カフェ・ド・クリエ
cafe,35.5614596,139.7174361,カフェ・ド・クリエ
cafe,35.6987232,139.7728561,Beck's Coffee Shop
cafe,35.6979571,139.7724474,めいどりーみん
cafe,35.6977104,139.7723076,マンガ・ネット館
cafe,35.6704709,139.7498457,カフェ・ド・クリエ
cafe,35.7010337,139.7467554,カフェ・ド・クリエ
cafe,35.6461558,139.7111446,カフェ・ド・クリエ
cafe,35.7007249,139.7434629,カフェ・ド・クリエ
cafe,35.6983029,139.7715003,MaiDreamin
cafe,35.6504769,139.5547691,ぶんぶん
cafe,35.701401,139.7705745,Cafe Euro
cafe,35.7024312,139.770483,Honey Honey
cafe,35.626799,139.7409602,カフェ・ド・クリエ
cafe,35.7279043,139.7155327,カフェ・ド・クリエ
cafe,35.6649022,139.7530632,カフェ・ド・クリエ
cafe,35.6998503,139.4141889,カフェ・ド・クリエ
cafe,35.6921837,139.7391696,カフェ・ド・クリエ
cafe,35.6977958,139.8111021,カフェ・ド・クリエ
cafe,35.7223923,139.7621598,カフェ・ド・クリエ
cafe,35.7026004,139.737697,カフェ・ド・クリエ
cafe,35.6970796,139.7634644,ドトールコーヒーショップ
cafe,35.6926156,139.741995,カフェ・ド・クリエ
cafe,35.6953375,139.7522388,カフェ・ド・クリエ
cafe,35.6995541,139.7707877,＠ほぉ～むカフェ
cafe,35.6855076,139.7321693,カフェ・ド・クリエ
cafe,35.6922361,139.723338,カフェ・ド・クリエ
cafe,35.6128026,139.3791934,カフェ・ド・クリエ
cafe,35.6726885,139.7382134,カフェ・ド・クリエ
cafe,35.6801784,139.7853097,カフェ・ド・クリエ
cafe,35.6569604,139.6955606,カフェ・ド・クリエ
cafe,35.7093616,139.8009256,カフェ・ド・クリエ
cafe,35.6558075,139.7348491,カフェ・ド・クリエ
cafe,35.6974621,139.414845,カフェ・ド・クリエ
cafe,35.7292534,139.7093701,カフェ・ド・クリエ
cafe,35.6669331,139.7661697,カフェ・ド・クリエ
cafe,35.6930101,139.7024006,カフェ・ド・クリエ
cafe,35.7286008,139.7195538,カフェ・ド・クリエ
cafe,35.6818162,139.787345,カフェ・ド・クリエ
cafe,35.7061775,139.7758471,カフェ・ド・クリエ
cafe,35.6795307,139.7796389,カフェ・ド・クリエ
cafe,35.6858431,139.784849,カフェ・ド・クリエ
cafe,35.6920924,139.7079943,カフェ・ド・クリエ
cafe,35.7800896,139.7193573,カフェ・ド・クリエ
cafe,35.5626225,139.7157265,カフェ・ド・クリエプラス
cafe,35.699905,139.4799149,カフェ・ド・クリエプラス
cafe,35.6571659,139.7586212,カフェ・ド・クリエプラス
cafe,35.6837537,139.703201,カフェ・ド・クリエ
cafe,35.6908697,139.7360803,カフェ・ド・クリエ
cafe,35.6565056,139.7551814,カフェ・ド・クリエ
cafe,35.751983,139.8584157,カフェ・ド・クリエ
cafe,35.6708183,139.7525313,カフェ・ド・クリエ
cafe,35.6960569,139.6891437,カフェ・ド・クリエ
cafe,35.7502116,139.8025514,TSUTAYA
cafe,35.6657199,139.7681799,カフェ・ド・クリエ
cafe,35.6688337,139.7553944,カフェ・ド・クリエ
cafe,35.69731,139.7425227,カフェ・ド・クリエ
cafe,35.6680461,139.6129783,スターバックス
cafe,35.7086565,139.6649042,カフェ・ベローチェ
cafe,35.705347,139.6689731,カフェ・ベローチェ
cafe,35.6972668,139.6677471,カフェ・ベローチェ
cafe,35.6694169,139.6008111,カフェ・ベローチェ
cafe,35.6327099,139.6599486,カフェ・ベローチェ
cafe,35.6497852,139.7563567,ドトールコーヒーショップ
cafe,35.6238781,139.7507675,エクセルシオール カフェ
cafe,35.6720036,139.7331357,エクセルシオール カフェ
cafe,35.667173,139.776781,エクセルシオール カフェ
cafe,35.6852794,139.6908898,エクセルシオール カフェ
cafe,35.6265901,139.7244302,エクセルシオール カフェ
cafe,35.6592478,139.6990945,エクセルシオール カフェ
cafe,35.6692723,139.7556843,エクセルシオール カフェ
cafe,35.6576973,139.6974816,エクセルシオール カフェ
cafe,35.6605621,139.6993257,エクセルシオール カフェ
cafe,35.6952513,139.6986885,エクセルシオール カフェ
cafe,35.6625587,139.7449273,エクセルシオール カフェ
cafe,35.7282699,139.7714382,エクセルシオール カフェ
cafe,35.6572991,139.7832016,エクセルシオール カフェ
cafe,35.6905107,139.735885,エクセルシオール カフェ
cafe,35.7489469,139.7019721,エクセルシオール カフェ
cafe,35.7183435,139.7938019,Danke
cafe,35.697564,139.6796443,サンマルクカフェ
cafe,35.7103421,139.7131447,カフェ　ツバメ
cafe,35.7106276,139.7126021,西東詩集
cafe,35.692485,139.6868152,マックス
cafe,35.6920051,139.6882151,EAST WAY CAFFE
cafe,35.6922715,139.689927,スターバックス
cafe,35.6924149,139.6909024,RIE coffee
cafe,35.7089749,139.7056467,ザッシカフェ
cafe,35.6836564,139.7014093,ドトールコーヒーショップ
cafe,35.6605138,139.3806616,ドトールコーヒーショップ
cafe,35.6865976,139.7823841,エクセルシオール カフェ
cafe,35.6073323,139.6848053,エクセルシオール カフェ
cafe,35.6592343,139.7930314,エクセルシオール カフェ
cafe,35.708215,139.7526647,エクセルシオール カフェ
cafe,35.6565394,139.7591876,エクセルシオール カフェ
cafe,35.6842186,139.7385671,エクセルシオール カフェ
cafe,35.6057366,139.7355662,エクセルシオール カフェ
cafe,35.5877115,139.7292865,エクセルシオール カフェ
cafe,35.6182953,139.7280163,エクセルシオール カフェ
cafe,35.7010155,139.4814006,スターバックス
cafe,35.772547,139.5197752,スターバックス
cafe,35.6258983,139.776289,ホノルルコーヒー
cafe,35.6589423,139.6627568,白髭泡芙工房白髭のシュークリーム工房
cafe,35.6922751,139.4611756,ドトールコーヒーショップ
cafe,35.6600228,139.585326,Cafe Jr.
cafe,35.690927,139.7574252,スターバックス
cafe,35.6877493,139.7644969,スターバックス
cafe,35.6863897,139.7652318,スターバックス
cafe,35.6851612,139.7669162,スターバックス
cafe,35.6870958,139.7656126,スターバックス
cafe,35.6929081,139.7708312,ドトールコーヒーショップ
cafe,35.6928023,139.7704143,カフェ・ベローチェ
cafe,35.6593979,139.7523778,アイビー館
cafe,35.6494919,139.747664,スターバックス
cafe,35.6471206,139.7473233,タリーズコーヒー
cafe,35.6619574,139.7242127,円居 (まどい)
cafe,35.6614008,139.7233831,Tearoom Friends
cafe,35.6599853,139.723164,TeTeS
cafe,35.6627194,139.7122143,Cafe Madu
cafe,35.6627281,139.7111307,スターバックス
cafe,35.6633906,139.7111789,ドトールコーヒーショップ
cafe,35.6630779,139.7128505,Nomu
cafe,35.6627673,139.7106425,ファーイーストカフェ
cafe,35.6628066,139.7095643,cafe table TERRACE
cafe,35.6617987,139.7115451,蔦珈琲店
cafe,35.6556065,139.653248,梅が丘ビストロ くるみ
cafe,35.6517576,139.6574793,レンガ屋
cafe,35.6499247,139.6597484,ひつじの
cafe,35.6289248,139.7436826,伊右衛門カフェ
cafe,35.7357686,139.3300776,珈琲 まよか
cafe,35.6452566,139.7118473,モンスーンカフェ
cafe,35.6293562,139.4480588,タリーズコーヒー
cafe,35.6228559,139.4252046,スターバックス
cafe,35.6910746,139.735722,スターバックス
cafe,35.6958237,139.7522605,スターバックス
cafe,35.6956875,139.7506041,スターバックス
cafe,35.7011996,139.7501102,スターバックス
cafe,35.6907868,139.7648236,タリーズコーヒー
cafe,35.6933386,139.7712778,スターバックス
cafe,35.6977586,139.7737501,スターバックス
cafe,35.698499,139.7721046,スターバックス
cafe,35.6888621,139.7628312,スターバックス
cafe,35.6464178,139.7458726,カフェ・ベローチェ
cafe,35.6451765,139.7074516,Lav
cafe,35.6877655,139.5588867,コメダ珈琲店
cafe,35.6380801,139.6920449,ドトールコーヒーショップ
cafe,35.7165277,139.5495736,タンパ
cafe,35.6616332,139.4139945,タリーズコーヒー
cafe,35.6857823,139.7289847,サンマルクカフェ
cafe,35.6248119,139.7217425,ドトールコーヒーショップ
cafe,35.7049444,139.5771236,てまりのおうち
cafe,35.7062314,139.5767849,茶の愉 (Cha no Yu)
cafe,35.6749567,139.7636138,Pronto
cafe,35.7503556,139.8057878,スターバックス
cafe,35.750386,139.804967,スターバックス
cafe,35.7498027,139.8056166,ドトールコーヒーショップ
cafe,35.7945499,139.7923141,DOUTOR
cafe,35.7504339,139.804206,ドトールコーヒーショップ
cafe,35.7494097,139.8061238,ドトールコーヒーショップ
cafe,35.7657712,139.8090372,ドトールコーヒーショップ
cafe,35.620383,139.72895,サンマルクカフェ
cafe,35.7045666,139.646379,Rui
cafe,35.6951361,139.813434,スターバックス
cafe,35.69715,139.813309,スターバックス
cafe,35.709684,139.8096259,スターバックス
cafe,35.7106771,139.8126083,タリーズコーヒー
cafe,35.6973846,139.8093525,タリーズコーヒー
cafe,35.7009702,139.815288,タリーズコーヒー
cafe,35.7003721,139.8163382,タリーズコーヒー
cafe,35.6962716,139.8155854,ドトールコーヒーショップ
cafe,35.6976186,139.8145604,ドトールコーヒーショップ
cafe,35.6882501,139.8052129,ドトールコーヒーショップ
cafe,35.6955408,139.7934242,ドトールコーヒーショップ
cafe,35.7252496,139.8193275,ドトールコーヒーショップ
cafe,35.7175616,139.8179247,ドトールコーヒーショップ
cafe,35.6955019,139.7941026,カフェ・ベローチェ
cafe,35.6956575,139.7920603,サンマルクカフェ
cafe,35.7051889,139.6195863,サンマルクカフェ
cafe,35.704371,139.6368481,サンマルクカフェ
cafe,35.7040331,139.6487981,サンマルクカフェ
cafe,35.6699217,139.6818118,サンマルクカフェ
cafe,35.6537715,139.6471993,サンマルクカフェ
cafe,35.6512214,139.6377506,サンマルクカフェ
cafe,35.6997795,139.7742164,Pronto
cafe,35.700545,139.7725627,Pronto
cafe,35.657013,139.7540105,Favorite Time Coffee 芝大門ABC館
cafe,35.7039198,139.6214881,コメダ珈琲店
cafe,35.6433891,139.6714423,コメダ珈琲店
cafe,35.6890949,139.8288675,コメダ珈琲店
cafe,35.7855877,139.8654749,コメダ珈琲店
cafe,35.7317895,139.7104566,コメダ珈琲店
cafe,35.6658846,139.5833201,コメダ珈琲店
cafe,35.7968195,139.7946931,コメダ珈琲店
cafe,35.6170162,139.4132382,コメダ珈琲店
cafe,35.7802726,139.6514933,コメダ珈琲店
cafe,35.6417757,139.4901494,コメダ珈琲店
cafe,35.5724598,139.684373,コメダ珈琲店
cafe,35.5654804,139.4447947,コメダ珈琲店
cafe,35.5536939,139.4277936,コメダ珈琲店
cafe,35.6681654,139.7599602,CAFÉ BALCONY
cafe,35.6711218,139.7627649,風月堂
cafe,35.6692053,139.7610656,Pronto
cafe,35.670696,139.7610416,R25 café
cafe,35.6681112,139.7619956,カフェ パウリスタ
cafe,35.7014944,139.7713194,エクセルシオール カフェ
cafe,35.62857,139.775736,Maru no Ki
cafe,35.6073946,139.7038434,ドトールコーヒーショップ
cafe,35.5832233,139.4804247,スターバックス
cafe,35.699595,139.7762416,ドトールコーヒーショップ
cafe,35.7005792,139.7751967,ドトールコーヒーショップ
cafe,35.6994924,139.7695719,ドトールコーヒーショップ
cafe,35.6493119,139.691105,カフェフレンド　シュプール
cafe,35.6490868,139.6914137,2・3・4
cafe,35.6452265,139.6977765,ペア
cafe,35.6440578,139.6979865,漫画喫茶 ドラゴン
cafe,35.650539,139.6753638,PLACE JAUNE
cafe,35.649921,139.6743759,coneotde
cafe,35.6602524,139.6728159,KAMAKURA
cafe,35.6593098,139.6728945,PUTTO
cafe,35.6603145,139.6729277,スリーコンカフェ
cafe,35.68078,139.763644,ease
cafe,34.7376327,139.3797492,御神火茶屋
cafe,35.6369923,139.4158531,Funny Face
cafe,35.6870901,139.599765,豆の木
cafe,35.669785,139.741099,タリーズコーヒー
cafe,35.7026798,139.619737,茶房コト
cafe,35.700414,139.74251,スターバックス
cafe,34.68738,139.439777,松泉堂
cafe,34.753696,139.3571277,らイブ
cafe,35.678934,139.392239,サカエヤ茶楼
cafe,35.667621,139.37728,BASEL
cafe,34.066877,139.482243,CAFE691
cafe,35.6665735,139.7100544,モスカフェ
cafe,35.653896,139.796157,ペル・エ・メル
cafe,35.7695826,139.3067839,ヨコタン
cafe,35.7038155,139.5833239,シアターカフェ
cafe,35.7001206,139.5860507,CAFE MiMi
cafe,35.6996604,139.5868616,SUIZIGAI CAFE
cafe,34.74919,139.3547407,Cafe Island
cafe,35.5429153,139.4444308,タリーズコーヒー
cafe,35.5431503,139.4440592,スターバックス
cafe,35.691191,139.769167,カフェ・ベローチェ
cafe,34.7639656,139.3580374,きらく小屋
cafe,35.619923,139.7284135,Beck's Coffee Shop
cafe,35.6804736,139.6864822,ドトールコーヒーショップ
cafe,35.68812,139.698387,ドトールコーヒーショップ
cafe,35.700061,139.41524,ハーツ
cafe,35.6611816,139.7010015,カフェ珈琲館
cafe,35.6734291,139.7608512,ドトールコーヒーショップ
cafe,35.686566,139.695209,Excelsior
cafe,35.684828,139.6923812,カフェ・ベローチェ
cafe,35.686509,139.695031,Vie de France Cade
cafe,35.687188,139.6966,スターバックス
cafe,35.6426894,139.7498577,ドトールコーヒーショップ
cafe,35.6649105,139.2880584,スターバックス
cafe,35.6554634,139.3354448,G.M.
cafe,35.6670234,139.75368,やなか珈琲
cafe,35.6352102,139.5774402,カフェ マメフク
cafe,35.655707,139.341331,NICO CAFE
cafe,35.6979404,139.4469307,スターバックス
cafe,35.663697,139.365168,BASEL
cafe,35.7042091,139.5758636,ぷらす90℃
cafe,35.687631,139.69768,Friend
cafe,35.680464,139.687244,petiteRie
cafe,35.710791,139.703357,Cafe Rapport
cafe,35.6332247,139.5891029,Cafe de Beans
cafe,35.70067,139.524855,喫茶まりも
cafe,35.702139,139.50739,Crown
cafe,35.7001,139.506682,上島珈琲店 武蔵小金井店
cafe,35.7018899,139.5069992,喫茶室たきざわ
cafe,35.703156,139.561216,Wip
cafe,35.7037826,139.5603912,ルノアール
cafe,35.704788,139.563154,珈琲壹番館
cafe,35.7024473,139.5604779,タリーズコーヒー
cafe,35.70336,139.561183,カフェ・テラスヴェルト
cafe,35.7005404,139.7534272,ギークカフェ水道橋
cafe,35.656958,139.341018,タリーズコーヒー
cafe,35.6599028,139.368261,Cafe&Kitchen おあしす
cafe,35.702657,139.737622,il gusto Dolce Vita
cafe,35.7604617,139.7195518,Yoshi's Cafe
cafe,35.763115,139.329034,喫茶樹樹
cafe,35.7024271,139.576843,八十八夜
cafe,35.662514,139.69874,SUZU CAFE
cafe,35.662497,139.698262,Royal Garden Cafe
cafe,35.6602952,139.7056631,ドトールコーヒーショップ
cafe,35.700743,139.75479,Cafe &Beer SWING
cafe,35.6583981,139.3682449,Canaan
cafe,35.607483,139.669771,エクセルシオール カフェ
cafe,35.6624659,139.66016,CHERRY
cafe,35.6625306,139.6550048,東亜
cafe,35.6270402,139.7204759,デスタン
cafe,35.789843,139.254911,ねじまき雲
cafe,35.7904217,139.2607983,夏への扉
cafe,35.661392,139.751309,Excelsior Cafe
cafe,35.661989,139.748985,スターバックス
cafe,35.716799,139.766085,珈琲館
cafe,35.7146965,139.7675618,サンクレスト
cafe,35.699421,139.787381,Cafe di Espresso
cafe,35.697933,139.786428,サンマルクカフェ
cafe,35.7068868,139.6827395,ドトールコーヒーショップ
cafe,35.7427911,139.6482266,ドトールコーヒーショップ
cafe,35.6253932,139.4248287,タリーズコーヒー
cafe,35.6250208,139.4243167,ドトールコーヒーショップ
cafe,35.6925515,139.7010149,cafe dè Bore
cafe,35.6925031,139.7013409,ルノアール
cafe,35.6918426,139.7032176,星乃珈琲店
cafe,35.6589034,139.7320124,スターバックス
cafe,35.6704391,139.7072687,The Terminal
cafe,35.6752108,139.6684782,雅
cafe,35.6579697,139.7050027,ドトールコーヒーショップ
cafe,35.657603,139.7048,BisCafe
cafe,35.688202,139.698852,Segafredo
cafe,35.688453,139.699268,Cafe Miyama
cafe,35.7948128,139.29282,多摩ワールドコーヒー
cafe,35.6436524,139.3312821,ドトールコーヒーショップ
cafe,35.6677747,139.3771552,ガール
cafe,35.683096,139.738069,カフェ・ベローチェ
cafe,35.65629,139.782246,スターバックス
cafe,35.679814,139.6853,みみ
cafe,35.674142,139.671421,CHIANTI CAFE
cafe,35.673247,139.667157,エクセルシオール カフェ
cafe,35.736909,139.749529,ドトールコーヒーショップ
cafe,35.736738,139.749674,インターネット まんが喫茶 コムコム
cafe,35.736534,139.750138,シャルル
cafe,35.736975,139.74271,台風倶楽部
cafe,35.7376803,139.7489606,セシル66
cafe,35.6870073,139.6943145,Tahitian Noni Cafe
cafe,35.6690249,139.688898,ドトールコーヒーショップ
cafe,35.6784419,139.675698,珈琲 カンタータ
cafe,35.6380264,139.2710048,Yakata
cafe,35.6496331,139.7044251,PASHA
cafe,35.6491427,139.7043202,kyogo
cafe,35.6016582,139.6977558,ドトールコーヒーショップ
cafe,35.6953763,139.4135722,カフェ・ベローチェ
cafe,35.653751,139.344293,カフェテラス コスモス
cafe,35.6581288,139.5745288,ドトール
cafe,35.709881,139.682857,パーゴラ
cafe,35.6995349,139.7710184,Amenity Dream;Akiba Guild
cafe,35.7012303,139.771815,めいどりーみん
cafe,35.660433,139.6994276,ITALIAN TOMATO Cafe Jr
cafe,35.7175774,139.7652163,Cafe&Beer Amber
cafe,35.6995609,139.7704687,AKIHABARAバックステージpass
cafe,35.6254739,139.7236025,オスロコーヒー
cafe,35.6701953,139.411244,スターバックス
cafe,35.7009676,139.7702629,Cafe & Bar B-Cats
cafe,35.6993987,139.7716532,MOCO
cafe,35.6993452,139.7698686,Grand Pirates Cafe & Bar
cafe,35.6993233,139.7698663,めいどりーみん秋葉原ひみつきち
cafe,35.6993062,139.7698636,萌えコン＠カフェ
cafe,35.6586377,139.6996033,スターバックス
cafe,35.6477948,139.7455251,ペナント
cafe,35.690628,139.7039719,らんぶる
cafe,35.6668258,139.7294222,RESTIR
cafe,35.786494,139.2900163,ラパン・アジル
cafe,35.6247075,139.7312551,Tea House Mayoor
cafe,35.6990535,139.7650848,スターバックス
cafe,35.6986244,139.4461323,エクセルシオール カフェ
cafe,35.69812,139.4455811,タリーズコーヒー
cafe,35.698359,139.447196,ルノアール
cafe,35.673711,139.7610091,珈琲茶館 集
cafe,35.6735696,139.7609583,珈琲館 紅鹿舎
cafe,35.6509964,139.7603654,東京クルーズカフェ
cafe,35.7149671,139.7763228,グリーンサロン
cafe,35.714795,139.775109,HIBIKI
cafe,35.718493,139.774141,ホテルオークラ ガーデンテラス
cafe,35.681453,139.6856,Relache
cafe,35.5873891,139.7282301,ドトールコーヒーショップ
cafe,35.5850239,139.7307863,自転車
cafe,35.7018431,139.4123188,akari cafe
cafe,35.7017215,139.4123172,炭火焙煎珈琲 桜乃
cafe,35.6996476,139.4141225,PRONTO
cafe,35.699108,139.414417,珈琲はなや
cafe,35.6986544,139.4146659,エクセルシオール カフェ
cafe,35.699568,139.414806,Cafe VELOCE
cafe,35.7466865,139.8269151,COLORADO
cafe,35.7458465,139.8264817,和ーずわーず
cafe,35.69547,139.7532512,Pronto
cafe,35.6019378,139.6652953,えんがわ
cafe,35.6654694,139.7283787,中洞牧場ミルクカフェ
cafe,35.664068,139.731082,スターバックス
cafe,35.673704,139.761042,集
cafe,35.5629764,139.7170128,ドトールコーヒーショップ
cafe,35.562443,139.717751,カフェドキネマ
cafe,35.561803,139.718709,猫カフェらくん
cafe,35.5969351,139.7115479,楡
cafe,35.5861964,139.7281828,サンマルクカフェ
cafe,35.7481022,139.8036767,Birdland
cafe,35.7482763,139.8036446,boquerona
cafe,35.7481455,139.8036759,わかば堂
cafe,35.748257,139.8020019,Shanty
cafe,35.5487596,139.7446568,ANN
cafe,35.7231741,139.3021423,高倉町珈琲
cafe,35.5710691,139.6859723,コロラド
cafe,35.5856242,139.6824773,サンマルクカフェ
cafe,35.6968412,139.4140101,ドトールコーヒーショップ
cafe,35.6942,139.452706,カフェ クオーレ
cafe,35.7504676,139.664941,Caffe21
cafe,35.697662,139.449077,Net cafe プラド
cafe,35.697786,139.446398,白十字
cafe,35.648572,139.701457,メゾン ichi
cafe,35.651315,139.703799,Urth Caffe
cafe,35.659921,139.706066,カフェ・ベローチェ
cafe,35.742581,139.337602,HACHI CAFE
cafe,35.6986476,139.4151262,ルノアール
cafe,35.6123068,139.6276518,Segafredo
cafe,35.6032358,139.3470769,くるてく
cafe,35.6701324,139.7064586,スターバックス
cafe,35.6579066,139.2671795,cafe 海の塔
cafe,35.689599,139.695449,エクセルシオール カフェ
cafe,35.684007,139.70133,タリーズコーヒー
cafe,35.648077,139.700542,lab.LABAR
cafe,35.6461674,139.7079139,スターバックス
cafe,35.680978,139.711053,エクセルシオール
cafe,35.7058441,139.7221992,珈琲館
cafe,35.661494,139.729388,スターバックス
cafe,35.698236,139.506218,カフェド ペリーヌ
cafe,35.65054,139.69664,Green Cafe Saigoyama
cafe,35.648255,139.700408,Matsunosuke N.Y.
cafe,35.647786,139.7039034,tao
cafe,35.649209,139.69898,アロハ テーブル
cafe,35.7110116,139.6672699,Cafe shukring
cafe,35.6900264,139.6977083,COLORAD
cafe,35.6897445,139.6965821,Pronto
cafe,35.6921227,139.6977524,スターバックス
cafe,35.6899737,139.6974261,スターバックス
cafe,35.6895564,139.6966085,ドトールコーヒーショップ
cafe,35.6941004,139.6991259,ルノアール
cafe,35.694917,139.6982073,ルノアール
cafe,35.6941499,139.6942793,サンマルクカフェ
cafe,35.6938578,139.6952104,ドトールコーヒーショップ
cafe,35.6946132,139.6927108,BBB
cafe,35.6945467,139.6929624,タリーズコーヒー
cafe,35.662224,139.730647,椿屋珈琲店
cafe,35.662782,139.731919,喫茶室ルノアール 六本木ラピロス店
cafe,35.694334,139.682101,Live cafe 以心伝心
cafe,35.694076,139.416395,CROWN
cafe,35.685654,139.416844,Garden and Crafts Cafe
cafe,35.681804,139.440052,VARAMON
cafe,35.681181,139.445402,みる
cafe,35.682625,139.445472,Galerie Cafe M
cafe,35.666311,139.476287,トップ
cafe,35.666828,139.477017,ドトールコーヒーショップ
cafe,35.6638425,139.7417011,上島珈琲店
cafe,35.660151,139.380146,Net cafe コミックバスター
cafe,35.7425625,139.3279432,ドトールコーヒーショップ
cafe,35.741612,139.32674,Cafe du jardin
cafe,35.6586811,139.7052369,珈琲館
cafe,35.5791631,139.720171,すばる
cafe,35.5796801,139.7209145,EVER GREEN
cafe,35.6480461,139.7099859,サンマルクカフェ
cafe,35.6575559,139.1685115,和田峠茶屋
cafe,35.64248,139.28039,ダイコクヤ
cafe,35.6516968,139.3008231,GARAGE HALF
cafe,35.656164,139.308625,Cafe ENLARGE
cafe,35.66615,139.7282442,Down stairs coffe
cafe,35.679615,139.676989,Cafe de Espresso
cafe,35.705267,139.650267,Beck's Coffee Shop
cafe,35.671701,139.7647168,WAKO ANNEX
cafe,35.6576087,139.3425128,Brasserie BASEL
cafe,35.6712181,139.7646792,ドトールコーヒーショップ
cafe,35.6840391,139.7196139,しなのCafe
cafe,35.7423444,139.4334939,オランダ坂珈琲店
cafe,35.6039843,139.6657576,fete cafe
cafe,35.5969886,139.6674381,cafe gino
cafe,35.697545,139.765535,NEW YORKER'S Cafe
cafe,35.6965751,139.7649366,タリーズコーヒー
cafe,35.691648,139.73688,ドトールコーヒーショップ
cafe,35.608014,139.670253,カフェ・アンセーニュ・ダングル
cafe,35.5973694,139.667353,スターバックス
cafe,35.6700579,139.7173901,スターバックス
cafe,35.6804128,139.7991677,hane-cafe
cafe,35.681004,139.7995261,Jolly cafe+wan
cafe,35.6444306,139.6692001,Mamehico
cafe,35.6898816,139.6638202,ジェイズ珈琲
cafe,35.7843033,139.3025192,星乃珈琲店
cafe,35.6667887,139.7611792,宮越屋珈琲　東京本店
cafe,35.7059597,139.6543899,喫茶 松の家
cafe,35.6631986,139.6686956,やなか珈琲店
cafe,35.6417003,139.5197692,NiNiGi CAFE
cafe,35.607798,139.6474139,fam
cafe,35.6611578,139.668751,bio ojiyan cafe
cafe,35.6784797,139.6351073,Beans
cafe,35.678434,139.6350858,Atelier Rocky
cafe,35.6809569,139.6290187,Berry's Tea Room
cafe,35.6431196,139.6110208,Toy
cafe,35.7053487,139.6358326,MIKADO-YA 珈琲店
cafe,35.7047825,139.6361686,スターバックス
cafe,35.696155,139.7584856,ドトールコーヒーショップ
cafe,35.6600641,139.6680639,Sauthern Hills Cafe
cafe,35.695295,139.76013,ドトールコーヒーショップ
cafe,35.6952612,139.7599198,PaperBackCafe
cafe,35.695434,139.759524,サンマルクカフェ
cafe,35.625653,139.723504,集
cafe,35.6253,139.723925,Pronto
cafe,35.625955,139.724932,コージー
cafe,35.7819153,139.1502154,長尾茶屋
cafe,35.6552879,139.56743,手紙舎 2nd story
cafe,35.684388,139.6587488,ウエストウッド
cafe,35.7012286,139.5832497,Ichijiku
cafe,35.7088125,139.8110569,cafe tokyo
cafe,35.7091558,139.8083854,sakura cafe
cafe,35.70904,139.8109038,Oshiage cafe
cafe,35.7053231,139.8163788,柳島カフェ
cafe,35.7014231,139.8162036,すみだ珈琲
cafe,35.6638483,139.7153076,INTERSECT BY LEXUS - TOKYO
cafe,35.7082331,139.6653684,ルノアール
cafe,35.6248383,139.7756512,タリーズコーヒー
cafe,35.6601214,139.5853316,ララパスタ
cafe,35.7065246,139.6856853,ジャックと豆の木
cafe,35.6620461,139.6660081,Arco
cafe,35.779468,139.724163,Bear's cafe someday
cafe,35.77966,139.723706,喫茶ユートピア
cafe,35.7777194,139.7303195,パステル
cafe,35.7794456,139.7235976,ドトールコーヒーショップ
cafe,35.775268,139.724827,喫茶ポチ
cafe,35.7781242,139.7215143,梅の木新館
cafe,35.7009436,139.4811131,北口カフェ
cafe,35.6148806,139.4084093,Cafe de Soeur
cafe,35.6109903,139.3819847,しょこら亭
cafe,35.6955724,139.7709152,ヴェルデ ナチュール
cafe,35.6756929,139.7617079,ドトールコーヒーショップ
cafe,35.687629,139.72521,Moriva Coffee
cafe,35.6836037,139.7415002,サンマルクカフェ
cafe,35.6827015,139.7413534,miwa Cafe
cafe,35.6836823,139.741038,ドトールコーヒーショップ
cafe,35.7259666,139.6037173,カリーナ
cafe,35.7413486,139.7420507,SOMEI VILLAGE
cafe,35.7011421,139.4796433,カフェ ジョルジュ サンク
cafe,35.7276,139.7652845,和栗や
cafe,35.6519659,139.5451529,シャノアール
cafe,35.6533359,139.5320331,Pantry Coffee
cafe,35.6605961,139.5242168,カフェクーノ
cafe,35.6078447,139.6708949,PICO
cafe,35.694694,139.674168,ハーモニー
cafe,35.6550983,139.5676996,The noon
cafe,35.6750106,139.6433931,Jacob
cafe,35.6977776,139.7071913,E Hotel Higashi Shinjuku
cafe,35.6607976,139.3329398,SAKURAYA
cafe,35.706262,139.868013,フルサト
cafe,35.699653,139.746463,ラブリコ
cafe,35.693777,139.6939914,Strawbery Fields
cafe,35.6607674,139.6985182,CAFFE SENTITO
cafe,35.6597918,139.7004106,スターバックス
cafe,35.6620896,139.6972811,ルノワール
cafe,35.6672162,139.6920809,Natty Curry
cafe,35.6668306,139.6924172,Bondi Café
cafe,35.683165,139.6561548,Cafe & Bar Bell
cafe,35.7695542,139.6609514,スターバックス
cafe,35.6466469,139.7112514,Pronto
cafe,35.646672,139.7113185,タリーズコーヒー
cafe,35.688503,139.7359156,ドトールコーヒーショップ
cafe,35.703849,139.614444,トムテ
cafe,35.703614,139.582965,ダンケ珈琲店
cafe,35.6365352,139.4473294,Chat Box
cafe,35.6413592,139.4377003,くりの木
cafe,35.655114,139.7621066,MORIVA COFFEE
cafe,35.6634509,139.7452418,サンマルクカフェ
cafe,35.6979503,139.6478699,ブーケ
cafe,35.7001356,139.6475065,七つ森
cafe,35.7074212,139.6502232,高円寺茶房
cafe,35.6290691,139.7338907,ハーベステラス
cafe,35.6991292,139.7019969,KUBOSTA COFFEE
cafe,35.7199332,139.663347,猫丸
cafe,35.7192407,139.6633256,Jammy
cafe,35.7636301,139.7127056,ODEON Shokudo&Cafe
cafe,35.699849,139.7326243,The tee tokyo
cafe,35.5855609,139.681525,ドトールコーヒーショップ
cafe,35.6654945,139.7048132,The Roastery by Nozy Coffee
cafe,35.666644,139.692426,Fuglen Tokyo
cafe,35.6995871,139.7731463,やなか珈琲店
cafe,35.650688,139.637728,Cafe de Rose
cafe,35.650725,139.637729,アルルカン
cafe,35.659813,139.35904,Cafe Roju
cafe,35.6743997,139.4014745,あり田
cafe,35.6624832,139.377929,ベアトリーチェ
cafe,35.7841264,139.3131689,コメダ珈琲店
cafe,35.747293,139.384564,サンマルクカフェ
cafe,35.745693,139.38502,スターバックスコーヒーイオンモールむさし村山店
cafe,35.7004648,139.4154769,CAFE BURU7 BAR
cafe,35.6805907,139.7400155,珈琲茶館
cafe,35.6796408,139.7414111,タリーズコーヒー
cafe,35.6646353,139.7396118,タリーズコーヒー
cafe,35.6669696,139.7602728,ドトールコーヒーショップ
cafe,35.7330996,139.7399822,ルノアール
cafe,35.6591561,139.5732258,Ebiken
cafe,35.7082582,139.7606608,NIKKI café
cafe,35.6647363,139.7117775,スターバックス
cafe,35.683628,139.738272,タリーズコーヒー
cafe,35.6703457,139.7616151,the SNACK
cafe,35.678469,139.396542,喫茶まぁる
cafe,35.6699838,139.7603005,和蘭豆
cafe,35.7068421,139.7601143,ドトールコーヒーショップ
cafe,35.706884,139.7604622,ドトールコーヒーショップ
cafe,35.7072556,139.7598042,和田珈琲店
cafe,35.657751,139.6606978,らくだ屋珈琲店
cafe,35.6948504,139.6429597,Cafe Rosso
cafe,35.69959,139.75496,カフェ・ベローチェ
cafe,35.694765,139.765031,ドトールコーヒーショップ
cafe,35.6665869,139.7108309,スターバックス
cafe,35.6675125,139.7110874,Magia di farina
cafe,35.661868,139.669724,kate coffee
cafe,35.628837,139.401174,スターバックス
cafe,35.7217096,139.7061875,サンマルクカフェ
cafe,35.642341,139.341088,こすもす
cafe,35.677598,139.502259,DOG DAY CAFE
cafe,35.677858,139.513278,茶房山本
cafe,35.667904,139.544604,TOM&SAM
cafe,35.6907238,139.703394,Segafredo
cafe,35.6643825,139.7447626,ドトールコーヒーショップ
cafe,35.665884,139.363221,高倉町珈琲
cafe,35.6476362,139.710904,猿田彦珈琲
cafe,35.5444699,139.4461981,ドトールコーヒーショップ
cafe,35.6610106,139.7436562,ORANGE
cafe,35.6599886,139.7432396,ル・パン
cafe,35.6599748,139.743287,李李
cafe,35.660009,139.7432362,橫濱屋
cafe,35.6705144,139.7170021,ドトールコーヒーショップ
cafe,35.6631691,139.7130944,Summerbird
cafe,35.7729793,139.2933472,Ichiro san no キマグレ cafe
cafe,35.6713109,139.7161055,Lemon House Café
cafe,35.6708291,139.7166525,Cafe & Bar FAB
cafe,35.5412543,139.446322,ねこのみせ
cafe,35.5430265,139.44626,スターバックス
cafe,35.6741754,139.7671463,ドトールコーヒーショップ
cafe,35.6728271,139.7696271,Pour Cafe
cafe,35.6734199,139.768551,ドトールコーヒーショップ
cafe,35.6695947,139.7674312,Pronto
cafe,35.6623603,139.7816436,ライフ
cafe,35.662438,139.7827869,茶茶
cafe,35.666951,139.7165232,Gramercy Coffee
cafe,35.704051,139.575776,ミニカーカフェ
cafe,35.706504,139.569341,かうひいや
cafe,35.7041038,139.6199585,珈琲亜
cafe,35.6681679,139.7117711,文房具カフェ
cafe,35.70364,139.808387,SASAYA CAFE
cafe,35.7052408,139.6374454,CAFE KEGON
cafe,35.7051929,139.637185,iDEAL
cafe,35.6682408,139.7178004,蕎麦カフェ 伍
cafe,35.667932,139.7172521,Flaps Cafe
cafe,35.6687163,139.7169232,Architect Cafe
cafe,35.6572221,139.3385672,スターバックス
cafe,35.7641962,139.7812215,リアナ
cafe,35.6105934,139.6685249,古桑庵
cafe,35.6687451,139.7122835,Breizh Café Créperie
cafe,35.6688933,139.7123344,Lattest
cafe,35.7003826,139.7699417,JAM Akihabara
cafe,35.6344453,139.7142792,スターバックス
cafe,35.703155,139.755517,NEW YORKERS Cafe
cafe,35.736861,139.47617,タリーズコーヒー
cafe,35.6525068,139.5443981,ちとせやCafe
cafe,35.6707191,139.7147702,Flambeau
cafe,35.6511466,139.7234623,Segafredo ZANETTI
cafe,35.6625795,139.8741315,Crep
cafe,35.6622031,139.8737126,街角
cafe,35.6662444,139.7152295,風花
cafe,35.6658694,139.7135314,Nid Cafe
cafe,35.609453,139.6705358,Kanno~k
cafe,35.6732384,139.7401576,EXCELSIOR CAFFE
cafe,35.6664538,139.7131017,Le café BERTHOLLET
cafe,35.6627909,139.7160521,Chez Figaro
cafe,35.6787024,139.7099681,ドトールコーヒーショップ
cafe,35.7005021,139.7480432,プリバ
cafe,35.6798781,139.6459392,LL
cafe,35.6708777,139.719759,Indigo
cafe,35.6688104,139.720195,Chocolat Chic
cafe,35.6675539,139.7114582,Saladstop!
cafe,35.6689046,139.7126506,パンとエスプレッソと
cafe,35.6676435,139.7113016,76 Cafe
cafe,35.6635501,139.7117268,Spiral Café
cafe,35.6641254,139.71214,Pier's Cafe
cafe,35.6771992,139.7355454,スターバックス
cafe,35.6774443,139.7359424,ホノルルコーヒー
cafe,35.6722472,139.720465,Royal Garden Cafe
cafe,35.67137,139.721953,Eight Coffee
cafe,35.667648,139.7177817,Goblin Park
cafe,35.6706627,139.7169774,Kawashima
cafe,35.6634529,139.7039245,Streamer Coffee Company
cafe,35.6931573,139.6963072,エクセルシオール カフェ
cafe,35.6937674,139.6978048,カフェ・ベローチェ
cafe,35.6691721,139.7167466,Le Patisser Takagi
cafe,35.7015871,139.5706487,はな子カフェ
cafe,35.7005423,139.5723345,こもれび
cafe,35.7292082,139.2877892,コメダ珈琲店
cafe,35.6965502,139.6909926,サンマルクカフェ
cafe,35.6853507,139.7417154,ドトールコーヒーショップ
cafe,35.6852267,139.7417039,キングストン
cafe,35.6855129,139.7417391,cafe の
cafe,35.6865464,139.7418884,HEARTS
cafe,35.6994195,139.6352362,ドトールコーヒーショップ
cafe,35.648994,139.7024,Chez Lui
cafe,35.648588,139.70155,Chocolate café
cafe,35.649671,139.705254,Love and peace
cafe,35.6487546,139.7012369,Moccha coffee
cafe,35.6475845,139.7072861,Mother earth
cafe,35.69499,139.81181,だっこファミリーパティオ
cafe,35.648975,139.70401,カフェクラッセ
cafe,35.7002592,139.8156009,スターバックス
cafe,35.7024282,139.6285796,ベルツリー
cafe,35.6670849,139.7109702,Love & Table
cafe,35.6663568,139.7152957,Little Pool Coffee Kaikaina
cafe,35.7122387,139.6315146,MARU
cafe,35.7107454,139.6213981,フラット
cafe,35.6506659,139.685247,ワールド・ティー
cafe,35.648863,139.558297,カフェ・デザール ピコ
cafe,35.6916081,139.6532009,遊水　藤和園
cafe,35.7078724,139.7626968,廚菓子くろぎ
cafe,35.6634509,139.7127626,Pure Café
cafe,35.6635072,139.713291,Cafe Icho
cafe,35.659239,139.5874977,KICK BACK CAFE
cafe,35.6459183,139.6601437,カフェステップス
cafe,35.6510836,139.5512149,Cafe Gallery さえずり AED
cafe,35.7089363,139.5748127,Gobelins
cafe,35.7108571,139.5685182,長男堂
cafe,35.6514717,139.722772,BONDI CAFE
cafe,35.6571587,139.7946921,スターバックス
cafe,35.669254,139.679801,GREEN AND MEAT LIFE
cafe,35.659045,139.696265,FRIEND 
cafe,35.6424559,139.6705134,Seven
cafe,35.711225,139.719744,JAZZ NUTTY
cafe,35.696311,139.759061,カフェ・ベローチェ
cafe,35.680848,139.70421,Pronto
cafe,35.687581,139.6995285,カフェ・ベローチェ
cafe,35.6297021,139.7936381,タリーズコーヒー
cafe,35.63053,139.795144,Pronto
cafe,35.6247101,139.7755132,ガンダムカフェ
cafe,35.716623,139.457467,コメダ珈琲店
cafe,35.7202608,139.7838745,ドトールコーヒーショップ
cafe,35.7012687,139.6371393,カフェ・ベローチェ
cafe,35.7028357,139.6368008,上島珈琲店
cafe,35.7039558,139.6368671,星乃珈琲店
cafe,35.6664047,139.7133019,上島珈琲店
cafe,35.656733,139.653242,little tree
cafe,35.660958,139.668544,シェリュイ
cafe,35.6956689,139.6672156,カフェ・ド・アラビカ
cafe,35.6966584,139.7690649,竹むら
cafe,35.5409291,139.4484203,Cafe de CLIE
cafe,35.6076816,139.6681415,DALLOYAU
cafe,35.695677,139.755041,珈琲館
cafe,35.66119,139.665826,CAFE ZINC
cafe,35.65885,139.6603279,KI・マメトラ菓子店
cafe,35.729576,139.142205,やまびこ
cafe,35.6779826,139.635686,FURUTA CAFE
cafe,35.6978535,139.7747708,ルノアール
cafe,35.700855,139.7725063,タリーズコーヒー
cafe,35.6313893,139.7920126,カフェ・ベローチェ
cafe,35.6151527,139.7176558,カフェ・ベローチェ
cafe,35.651357,139.7228104,Les Grands Arbres
cafe,35.5436222,139.4460678,Trois Rivieres
cafe,35.7020231,139.538378,カフェ サカイ
cafe,35.6762769,139.7635241,神戸屋ダイニング
cafe,35.647819,139.749862,ベローチェ
cafe,35.656807,139.756641,タリーズコーヒー
cafe,35.5427744,139.4474866,Zero One Cafe
cafe,35.5430938,139.447706,ドトールコーヒーショップ
cafe,35.671101,139.458005,LINDBERGH CAFE
cafe,35.6469199,139.7107245,TeaStyle
cafe,35.6467816,139.7114556,ドトールコーヒーショップ
cafe,35.647206,139.7145806,スターバックス
cafe,35.646978,139.7135248,タリーズコーヒー
cafe,35.6478026,139.7149428,Cafe+Bar EBISUBASHI
cafe,35.7012741,139.6764587,カフェ モモガルテン
cafe,35.7315058,139.5753916,カフェゴーゴーゴー
cafe,35.5813752,139.7484852,タリーズコーヒー
cafe,35.6633271,139.6998773,アナログ渋谷
cafe,35.696149,139.7591449,BAGEL&BAGEL
cafe,35.6961826,139.758808,壹眞珈琲店
cafe,35.7010318,139.7552776,サンマルクカフェ
cafe,35.7237447,139.5911814,dearKIDS
cafe,35.710914,139.7947251,スターバックス
cafe,35.5420588,139.4476921,iho iho
cafe,35.5420161,139.4477173,カフェ グレ
cafe,35.5414975,139.4480543,珈琲舎 ロッセ
cafe,35.6311216,139.7146413,結庵
cafe,35.5457886,139.4452713,サンマルクカフェ
cafe,35.5456955,139.4456189,ドトールコーヒーショップ
cafe,35.669701,139.7654687,宮越屋珈琲
cafe,35.663395,139.7113553,珈琲舎 表参道
cafe,35.6634014,139.7105195,Pronto
cafe,35.758278,139.316453,ドトールコーヒーショップ
cafe,35.6597346,139.6676717,GOPAL
cafe,35.696223,139.76535,カフェ・ベローチェ
cafe,35.711248,139.7106,カフェ・ベローチェ
cafe,35.706299,139.719,ドトールコーヒーショップ
cafe,35.665095,139.71011,Bacchus
cafe,35.7713095,139.5190789,珈琲館
cafe,35.5435164,139.4461751,The Cafe
cafe,35.5442437,139.4462424,Latte Graphic
cafe,35.6839284,139.7939136,そら庵
cafe,35.704918,139.617951,imagine
cafe,35.6507699,139.640329,OSSE
cafe,35.6656846,139.8588608,ドトールコーヒーショップ
cafe,35.6703908,139.7501057,スターバックス
cafe,35.6961197,139.7673046,淡路町カフェ
cafe,35.697612,139.7680642,上島珈琲店
cafe,35.7066393,139.7719256,珈琲処ボナール
cafe,35.7076312,139.7727172,タリーズコーヒー
cafe,35.5449274,139.7696265,Pronto
cafe,35.5486305,139.4430722,珈琲茶房
cafe,35.7103366,139.7913871,ドトールコーヒーショップ
cafe,35.712983,139.792057,サンパウロ
cafe,35.7246465,139.7896455,ヒデ
cafe,35.7282225,139.7715098,ドトールコーヒーショップ
cafe,35.7282557,139.7721565,ルノアール
cafe,35.657125,139.75231,久緒羅珈琲
cafe,35.7232479,139.7627168,OHANA
cafe,35.7227285,139.7626377,うたごえ喫茶 ボイス
cafe,35.7064727,139.7735132,カフェ・ド・クリエ
cafe,35.7020413,139.6359964,ぱんだ珈琲店
cafe,35.6542201,139.7088885,Pillar cafe
cafe,35.547021,139.4469643,Sun's Cafe
cafe,35.7126277,139.6668852,ロンパーチッチ
cafe,35.663609,139.7011039,スターバックス
cafe,35.6628405,139.7010417,ドトールコーヒーショップ
cafe,35.6641448,139.7014424,Orobianco
cafe,35.6640037,139.7014254,WONDERBOWL
cafe,35.6703073,139.7160933,Café un rêve
cafe,35.666732,139.640851,coffee & roaster
cafe,35.687749,139.688795,ロシュ
cafe,35.6593987,139.777083,Pronto
cafe,35.6575163,139.7822067,サンマルクカフェ
cafe,35.7162261,139.5112081,武蔵野茶房 江戸東京たてもの園店
cafe,35.7156875,139.5127731,カフェ
cafe,35.734443,139.334171,Sugar
cafe,35.6563757,139.6528979,KAWAMURA GATEAUX
cafe,35.662515,139.6549973,珈琲専門店 東亜
cafe,35.6716436,139.7238665,カフェクルー
cafe,35.642315,139.7136158,スターバックス
cafe,35.732088,139.563357,コメダ珈琲店
cafe,35.6617138,139.6680011,Palazzo
cafe,35.6667871,139.7273256,PIMON
cafe,35.6644063,139.7323857,るぼーる
cafe,35.6816286,139.7734291,山本山 ふじヱ茶房
cafe,35.609388,139.669229,Peter Rabbit Garden Cafe
cafe,35.7258015,139.7168617,E PRONTO
cafe,35.7275739,139.7650109,谷中満天ドーナツ
cafe,35.6636208,139.7368862,Cafe 哲
cafe,35.6647755,139.7153124,Cafe Kitsune
cafe,35.6892532,139.7102901,PONY
cafe,35.6606483,139.7165273,ことりカフェ
cafe,35.6513732,139.7236423,Calva
cafe,35.7282282,139.713032,サンマルクカフェ
cafe,35.7270572,139.712359,スターバックス
cafe,35.667867,139.379935,コメダ珈琲店
cafe,35.60733,139.6692422,TWG
cafe,35.6074264,139.6708128,花きゃべつ
cafe,35.7279609,139.7185073,カフェ・ベローチェ
cafe,35.73051,139.287594,ドトールコーヒーショップ
cafe,35.651341,139.633309,anamo cafe
cafe,35.691364,139.420781,すてっぷ
cafe,35.6967872,139.7511801,エクセルシオール カフェ
cafe,35.7379782,139.6608608,Zookids cafe
cafe,35.7380869,139.8961348,Cafe Wakatake
cafe,35.7740029,139.30539,ONEモア
cafe,35.6643222,139.6998027,FILBERT STEPS
cafe,35.6638075,139.6999193,Kenyan 紅茶の店
cafe,35.6972221,139.7585532,珈琲エリカ
cafe,35.7076313,139.5978004,カフェ　アトリエ・カノン
cafe,35.7046859,139.5990769,beco cafe
cafe,35.7053679,139.5969542,物豆奇
cafe,35.6838478,139.7685382,スターバックス
cafe,35.6832154,139.7688759,スターバックス
cafe,35.6801809,139.7636129,スターバックス
cafe,35.6779135,139.7624703,スターバックス
cafe,35.6829448,139.7642107,Starbucks
cafe,35.6750146,139.7617717,スターバックス
cafe,35.6748021,139.7620952,スターバックス
cafe,35.6733331,139.760038,スターバックス
cafe,35.6743376,139.7636645,スターバックス
cafe,35.6753161,139.7640645,スターバックス
cafe,35.6703205,139.7546878,スターバックス
cafe,35.663257,139.6990911,Pronto
cafe,35.6729169,139.7408524,スターバックス
cafe,35.6760826,139.7384056,スターバックス
cafe,35.6710793,139.7467783,スターバックス
cafe,35.6811556,139.7635159,スターバックス
cafe,35.6792208,139.7629111,スターバックス
cafe,35.6990515,139.7441466,スターバックス
cafe,35.6067533,139.6664265,JUNOESQUE BAGEL
cafe,35.6781217,139.7689343,スターバックス
cafe,35.657391,139.7823152,スターバックス
cafe,35.6675947,139.776931,スターバックス
cafe,35.6667943,139.7596273,スターバックス
cafe,35.6649007,139.7565462,スターバックス
cafe,35.6654683,139.7596584,スターバックス
cafe,35.6648481,139.7430934,スターバックス
cafe,35.6642828,139.7618358,スターバックス
cafe,35.6655379,139.7609614,スターバックス
cafe,35.6630359,139.7607914,スターバックス
cafe,35.6634147,139.7514751,スターバックス
cafe,35.6656986,139.7393169,スターバックス
cafe,35.6713739,139.7393364,スターバックス
cafe,35.6720307,139.7369202,スターバックス
cafe,35.6669891,139.7398045,スターバックス
cafe,35.6443257,139.7341653,スターバックス
cafe,35.6269007,139.7419987,スターバックス
cafe,35.7071227,139.5956913,カフェ　モナミ
cafe,35.7078593,139.7756596,スターバックスコーヒー御徒町春日通り店
cafe,35.7112893,139.7757964,スターバックス
cafe,35.7124605,139.7765171,スターバックス
cafe,35.7119421,139.7979484,スターバックス
cafe,35.7068651,139.7526672,スターバックス
cafe,35.7034362,139.7496196,スターバックス
cafe,35.7028952,139.7547763,スターバックス
cafe,35.7022108,139.7627145,スターバックス
cafe,35.7506628,139.8043808,スターバックス
cafe,35.7690736,139.8721884,スターバックス
cafe,35.6661885,139.8038257,スターバックス
cafe,35.6255055,139.7760616,スターバックス
cafe,35.6550205,139.7923991,スターバックス
cafe,35.6975715,139.8263583,スターバックス
cafe,35.682218,139.8255241,スターバックス
cafe,35.6719975,139.8355653,スターバックス
cafe,35.6234335,139.7491659,スターバックス
cafe,35.6077241,139.7345316,スターバックス
cafe,35.605791,139.7340546,スターバックス
cafe,35.6257002,139.7245256,スターバックス
cafe,35.6235972,139.7228481,スターバックス
cafe,35.6189316,139.7312425,スターバックス
cafe,35.6175193,139.7287233,スターバックス
cafe,35.7172052,139.8575144,ルノアール
cafe,35.5880451,139.7281808,スターバックス
cafe,35.5625293,139.7164101,スターバックス
cafe,35.5484917,139.7931346,スターバックス
cafe,35.5546835,139.7885137,スターバックス
cafe,35.5485933,139.7843931,スターバックス
cafe,35.6658591,139.7037225,スターバックス
cafe,35.6687679,139.7058705,スターバックス
cafe,35.6605531,139.7070323,スターバックス
cafe,35.6472145,139.709882,スターバックス
cafe,35.6465955,139.7103729,スターバックス
cafe,35.6779323,139.7061784,スターバックス
cafe,35.6867951,139.6992015,スターバックス
cafe,35.6828061,139.7014387,スターバックス
cafe,35.6696294,139.680882,スターバックス
cafe,35.6492073,139.6832939,スターバックス
cafe,35.6571742,139.6677921,スターバックス
cafe,35.6073161,139.6328808,スターバックス
cafe,35.6160091,139.6238301,スターバックス
cafe,35.6112807,139.6293407,スターバックス
cafe,35.6876227,139.7232641,スターバックス
cafe,35.6860915,139.7303122,スターバックス
cafe,35.6943072,139.700151,スターバックス
cafe,35.6937789,139.7010707,スターバックス
cafe,35.6920268,139.7065006,スターバックス
cafe,35.6903798,139.701787,スターバックス
cafe,35.6888118,139.7024683,スターバックス
cafe,35.6910682,139.7010896,スターバックス
cafe,35.6909014,139.7039469,スターバックス
cafe,35.6908796,139.704403,スターバックス
cafe,35.6916765,139.7024499,スターバックス
cafe,35.6953028,139.6890346,スターバックス
cafe,35.6892926,139.6991311,スターバックス
cafe,35.6917179,139.6995504,スターバックス
cafe,35.7019667,139.7434335,スターバックス
cafe,35.6912504,139.6936857,スターバックス
cafe,35.6932031,139.6953373,スターバックス
cafe,35.7129137,139.7041201,スターバックス
cafe,35.7430161,139.6481529,スターバックス
cafe,35.7490838,139.5855582,スターバックス
cafe,35.7498113,139.6916198,スターバックス
cafe,35.7322033,139.7286276,スターバックス
cafe,35.7314796,139.7284562,スターバックス
cafe,35.7307838,139.7154339,スターバックス
cafe,35.7299373,139.7183218,スターバックス
cafe,35.7311192,139.7084451,スターバックス
cafe,35.7291719,139.7098946,スターバックス
cafe,35.7313685,139.7075004,スターバックス
cafe,35.7306351,139.7104372,スターバックス
cafe,35.7027528,139.5798978,スターバックス
cafe,35.7024286,139.560982,スターバックス
cafe,35.6526617,139.5437465,スターバックス
cafe,35.6716497,139.4809945,スターバックス
cafe,35.7010077,139.5069855,スターバックス
cafe,35.6619068,139.3806525,スターバックス
cafe,35.6082714,139.6688928,MONT-BLANC
cafe,35.5421559,139.4489531,スターバックス
cafe,35.5419106,139.4462234,スターバックス
cafe,35.544527,139.4458087,スターバックス
cafe,35.7202936,139.4367731,スターバックス
cafe,35.7139725,139.3630512,スターバックス
cafe,35.6993275,139.4132876,スターバックス
cafe,35.6985875,139.4135925,スターバックス
cafe,35.7436676,139.3280159,スターバックス
cafe,35.6562568,139.3390321,スターバックス
cafe,35.6139698,139.379477,スターバックス
cafe,35.6546856,139.3379908,スターバックス
cafe,35.7049498,139.6354491,タリーズコーヒー
cafe,35.7403683,139.6171677,タリーズコーヒー
cafe,35.7493483,139.5877179,タリーズコーヒー
cafe,35.7372505,139.6734711,タリーズコーヒー
cafe,35.7420008,139.6152192,タリーズコーヒー
cafe,35.56181,139.7152639,タリーズコーヒー
cafe,35.5489705,139.7841367,タリーズコーヒー
cafe,35.5608037,139.7184361,タリーズコーヒー
cafe,35.5691087,139.7239329,タリーズコーヒー
cafe,35.6331752,139.7157098,タリーズコーヒー
cafe,35.6082007,139.7034795,タリーズコーヒー
cafe,35.6235296,139.7205843,タリーズコーヒー
cafe,35.6255608,139.7259618,タリーズコーヒー
cafe,35.6234698,139.7290571,タリーズコーヒー
cafe,35.621493,139.7284677,タリーズコーヒー
cafe,35.6204401,139.7044659,タリーズコーヒー
cafe,35.7290739,139.7094324,タリーズコーヒー
cafe,35.7334467,139.7392192,タリーズコーヒー
cafe,35.7304188,139.7289527,タリーズコーヒー
cafe,35.7295466,139.7186038,タリーズコーヒー
cafe,35.7303869,139.7024604,タリーズコーヒー
cafe,35.7018817,139.7162493,タリーズコーヒー
cafe,35.6597279,139.6638297,CAFE NOOKS
cafe,35.6531538,139.6651622,世田谷邪宗門 ＝ アニメ 境界の彼方 （新堂写真館）
cafe,35.6877787,139.6932831,タリーズコーヒー
cafe,35.6967227,139.7080248,タリーズコーヒー
cafe,35.6924469,139.6971443,タリーズコーヒー
cafe,35.693681,139.6906917,タリーズコーヒー
cafe,35.6915097,139.697119,タリーズコーヒー
cafe,35.6942262,139.6876803,タリーズコーヒー
cafe,35.691819,139.6952416,タリーズコーヒー
cafe,35.6885655,139.7101083,タリーズコーヒー
cafe,35.6994664,139.7185192,タリーズコーヒー
cafe,35.6897336,139.7069836,タリーズコーヒー
cafe,35.7001532,139.7334413,タリーズコーヒー
cafe,35.68833,139.6920056,タリーズコーヒー
cafe,35.6980128,139.7200897,タリーズコーヒー
cafe,35.7025439,139.7439825,タリーズコーヒー
cafe,35.6861403,139.7024734,タリーズコーヒー
cafe,35.6629102,139.7006505,タリーズコーヒー
cafe,35.6549215,139.7177184,タリーズコーヒー
cafe,35.6672888,139.7086437,タリーズコーヒー
cafe,35.7112349,139.7660669,タリーズコーヒー
cafe,35.65132,139.749128,タリーズコーヒー
cafe,35.6313975,139.7433129,タリーズコーヒー
cafe,35.6703368,139.7527297,タリーズコーヒー
cafe,35.6698406,139.7456652,タリーズコーヒー
cafe,35.6540412,139.7441644,タリーズコーヒー
cafe,35.6529429,139.7440683,タリーズコーヒー
cafe,35.665433,139.7614174,タリーズコーヒー
cafe,35.6619174,139.7599288,タリーズコーヒー
cafe,35.659492,139.7531431,タリーズコーヒー
cafe,35.64019,139.7478482,タリーズコーヒー
cafe,35.6648969,139.7441366,タリーズコーヒー
cafe,35.6741937,139.7313071,タリーズコーヒー
cafe,35.6729886,139.7372949,タリーズコーヒー
cafe,35.6435664,139.7455845,Segafredo
cafe,35.6647808,139.7601178,タリーズコーヒー
cafe,35.669767,139.7542896,タリーズコーヒー
cafe,35.6560225,139.7343567,Dean and Deluca
cafe,35.6627158,139.7329488,タリーズコーヒー
cafe,35.6777815,139.7670236,タリーズコーヒー
cafe,35.6795605,139.7357028,タリーズコーヒー
cafe,35.6853311,139.7615043,タリーズコーヒー
cafe,35.6845613,139.7646793,タリーズコーヒー
cafe,35.6832835,139.7630088,タリーズコーヒー
cafe,35.6918496,139.7393554,タリーズコーヒー
cafe,35.6942382,139.7607408,タリーズコーヒー
cafe,35.6955411,139.7557951,タリーズコーヒー
cafe,35.6819096,139.7688825,タリーズコーヒー
cafe,35.6915019,139.760491,タリーズコーヒー
cafe,35.6772285,139.737436,タリーズコーヒー
cafe,35.6887477,139.7622393,タリーズコーヒー
cafe,35.7003132,139.7506376,タリーズコーヒー
cafe,35.6791744,139.786956,タリーズコーヒー
cafe,35.6710075,139.7660435,タリーズコーヒー
cafe,35.6739184,139.765179,タリーズコーヒー
cafe,35.6692944,139.7678992,タリーズコーヒー
cafe,35.6714862,139.7657568,タリーズコーヒー
cafe,35.6693441,139.7718366,タリーズコーヒー
cafe,35.6642849,139.7669614,タリーズコーヒー
cafe,35.6753499,139.7838771,タリーズコーヒー
cafe,35.6871636,139.7739536,タリーズコーヒー
cafe,35.6812299,139.778795,タリーズコーヒー
cafe,35.6790308,139.7728878,タリーズコーヒー
cafe,35.6505612,139.7993303,タリーズコーヒー
cafe,35.6339246,139.7947208,タリーズコーヒー
cafe,35.6504506,139.7959502,タリーズコーヒー
cafe,35.6747554,139.8153911,タリーズコーヒー
cafe,35.6695446,139.8207946,タリーズコーヒー
cafe,35.6480956,139.7987103,タリーズコーヒー
cafe,35.6570921,139.7954903,タリーズコーヒー
cafe,35.713497,139.8012805,タリーズコーヒー
cafe,35.7116956,139.7743591,タリーズコーヒー
cafe,35.7117545,139.7980828,タリーズコーヒー
cafe,35.7293976,139.7710697,タリーズコーヒー
cafe,35.6998448,139.4657622,タリーズコーヒー
cafe,35.6998601,139.4803866,タリーズコーヒー
cafe,35.7605204,139.5340307,タリーズコーヒー
cafe,35.697458,139.4141163,タリーズコーヒー
cafe,35.5354115,139.4734275,タリーズコーヒー
cafe,35.6981856,139.6580671,ドトールコーヒーショップ
cafe,35.6833595,139.6152768,ドトールコーヒーショップ
cafe,35.5621936,139.7129911,ドトールコーヒーショップ
cafe,35.5503233,139.7146513,ドトールコーヒーショップ
cafe,35.6080764,139.6853055,ドトールコーヒーショップ
cafe,35.5624139,139.7146769,ドトールコーヒーショップ
cafe,35.5676183,139.7271574,ドトールコーヒーショップ
cafe,35.5781851,139.7349922,ドトールコーヒーショップ
cafe,35.691474,139.766531,ドトールコーヒーショップ
cafe,35.6950041,139.7580429,ドトールコーヒーショップ
cafe,35.692416,139.7762996,ドトールコーヒーショップ
cafe,35.6969198,139.7574698,ドトールコーヒーショップ
cafe,35.6960352,139.7549158,ドトールコーヒーショップ
cafe,35.7000746,139.7557196,ドトールコーヒーショップ
cafe,35.6755871,139.7642191,ドトールコーヒーショップ
cafe,35.6854635,139.7638018,ドトールコーヒーショップ
cafe,35.6914147,139.737826,ドトールコーヒーショップ
cafe,35.6963169,139.7751299,ドトールコーヒーショップ
cafe,35.6924558,139.771872,ドトールコーヒーショップ
cafe,35.6850603,139.7675903,ドトールコーヒーショップ
cafe,35.6943598,139.7472021,ドトールコーヒーショップ
cafe,35.6843941,139.7376441,ドトールコーヒーショップ
cafe,35.673073,139.7530496,ドトールコーヒーショップ
cafe,35.6758267,139.7513863,ドトールコーヒーショップ
cafe,35.6806696,139.7680959,ドトールコーヒーショップ
cafe,35.674688,139.7614481,ドトールコーヒーショップ
cafe,35.6883603,139.7657436,ドトールコーヒーショップ
cafe,35.6833504,139.7376592,ドトールコーヒーショップ
cafe,35.691814,139.7719857,ドトールコーヒーショップ
cafe,35.6813896,139.7778444,ドトールコーヒーショップ
cafe,35.6712551,139.7607548,ドトールコーヒーショップ
cafe,35.6757858,139.7778683,ドトールコーヒーショップ
cafe,35.68755,139.7756995,ドトールコーヒーショップ
cafe,35.6858059,139.7808358,ドトールコーヒーショップ
cafe,35.6788755,139.7825074,ドトールコーヒーショップ
cafe,35.6699107,139.7687336,ドトールコーヒーショップ
cafe,35.6774918,139.7805275,ドトールコーヒーショップ
cafe,35.6918884,139.780113,ドトールコーヒーショップ
cafe,35.6860233,139.7847186,ドトールコーヒーショップ
cafe,35.6680103,139.7736411,ドトールコーヒーショップ
cafe,35.6807563,139.7866897,ドトールコーヒーショップ
cafe,35.6817202,139.7723735,ドトールコーヒーショップ
cafe,35.6836541,139.7810575,ドトールコーヒーショップ
cafe,35.6898606,139.7730438,ドトールコーヒーショップ
cafe,35.6689212,139.7650152,ドトールコーヒーショップ
cafe,35.6857434,139.7749691,ドトールコーヒーショップ
cafe,35.6597941,139.7776862,ドトールコーヒーショップ
cafe,35.6704753,139.7749138,ドトールコーヒーショップ
cafe,35.6852682,139.7829908,ドトールコーヒーショップ
cafe,35.6918921,139.7850868,ドトールコーヒーショップ
cafe,35.6894449,139.7710329,ドトールコーヒーショップ
cafe,35.6646293,139.7526986,ドトールコーヒーショップ
cafe,35.6647689,139.7558785,ドトールコーヒーショップ
cafe,35.6730977,139.7235165,ドトールコーヒーショップ
cafe,35.6762645,139.7339478,ドトールコーヒーショップ
cafe,35.6654363,139.7544643,ドトールコーヒーショップ
cafe,35.6469573,139.7464919,ドトールコーヒーショップ
cafe,35.6527096,139.7492546,ドトールコーヒーショップ
cafe,35.6686559,139.7481128,ドトールコーヒーショップ
cafe,35.6726351,139.724705,ドトールコーヒーショップ
cafe,35.6301164,139.7411679,ドトールコーヒーショップ
cafe,35.6544504,139.7554671,ドトールコーヒーショップ
cafe,35.6705333,139.7430161,ドトールコーヒーショップ
cafe,35.6714368,139.7353264,ドトールコーヒーショップ
cafe,35.6876868,139.7199415,ドトールコーヒーショップ
cafe,35.6925444,139.7232446,ドトールコーヒーショップ
cafe,35.6939759,139.6931998,ドトールコーヒーショップ
cafe,35.6897207,139.706915,ドトールコーヒーショップ
cafe,35.6919657,139.7065773,ドトールコーヒーショップ
cafe,35.6947079,139.7060813,ドトールコーヒーショップ
cafe,35.6890855,139.7122544,ドトールコーヒーショップ
cafe,35.6866306,139.7278349,ドトールコーヒーショップ
cafe,35.6862433,139.7274748,ドトールコーヒーショップ
cafe,35.6908729,139.6966122,ドトールコーヒーショップ
cafe,35.7028239,139.7423741,ドトールコーヒーショップ
cafe,35.7110457,139.7038903,ドトールコーヒーショップ
cafe,35.6978596,139.7005698,ドトールコーヒーショップ
cafe,35.6928592,139.6954186,ドトールコーヒーショップ
cafe,35.6886418,139.6966789,ドトールコーヒーショップ
cafe,35.7015381,139.6976207,ドトールコーヒーショップ
cafe,35.6994276,139.7183637,ドトールコーヒーショップ
cafe,35.7007294,139.743633,ドトールコーヒーショップ
cafe,35.7137888,139.7628343,ドトールコーヒーショップ
cafe,35.7110454,139.7648697,ドトールコーヒーショップ
cafe,35.7099047,139.7309819,ドトールコーヒーショップ
cafe,35.7125379,139.7989882,ドトールコーヒーショップ
cafe,35.7071594,139.7794773,ドトールコーヒーショップ
cafe,35.7053625,139.7757628,ドトールコーヒーショップ
cafe,35.7228048,139.7777192,ドトールコーヒーショップ
cafe,35.7115283,139.798047,ドトールコーヒーショップ
cafe,35.7135916,139.7771606,ドトールコーヒーショップ
cafe,35.7131068,139.7925913,ドトールコーヒーショップ
cafe,35.7108149,139.7761144,ドトールコーヒーショップ
cafe,35.7300762,139.7913433,ドトールコーヒーショップ
cafe,35.7101761,139.7966844,ドトールコーヒーショップ
cafe,35.7084115,139.7760608,ドトールコーヒーショップ
cafe,35.6969209,139.7857538,ドトールコーヒーショップ
cafe,35.7107362,139.7754416,ドトールコーヒーショップ
cafe,35.696032,139.8158569,ドトールコーヒーショップ
cafe,35.6979943,139.8148006,ドトールコーヒーショップ
cafe,35.669909,139.8186526,ドトールコーヒーショップ
cafe,35.6722114,139.7957973,ドトールコーヒーショップ
cafe,35.6875234,139.798102,ドトールコーヒーショップ
cafe,35.679567,139.8297075,ドトールコーヒーショップ
cafe,35.6328472,139.7886641,ドトールコーヒーショップ
cafe,35.6344477,139.7918093,ドトールコーヒーショップ
cafe,35.669483,139.8097615,ドトールコーヒーショップ
cafe,35.6895921,139.8344544,ドトールコーヒーショップ
cafe,35.6187812,139.705478,ドトールコーヒーショップ
cafe,35.6340206,139.7171345,ドトールコーヒーショップ
cafe,35.6258023,139.7136088,ドトールコーヒーショップ
cafe,35.6182012,139.7411662,ドトールコーヒーショップ
cafe,35.6155031,139.7152071,ドトールコーヒーショップ
cafe,35.6194236,139.7311409,ドトールコーヒーショップ
cafe,35.6214663,139.7230271,ドトールコーヒーショップ
cafe,35.6225302,139.727463,ドトールコーヒーショップ
cafe,35.6288373,139.6871661,ドトールコーヒーショップ
cafe,35.6072605,139.6680559,ドトールコーヒーショップ
cafe,35.6069336,139.6532303,ドトールコーヒーショップ
cafe,35.6267358,139.6330367,ドトールコーヒーショップ
cafe,35.633339,139.6618474,ドトールコーヒーショップ
cafe,35.6504539,139.6369979,ドトールコーヒーショップ
cafe,35.667981,139.6327239,ドトールコーヒーショップ
cafe,35.6439067,139.6697475,ドトールコーヒーショップ
cafe,35.6486121,139.7102493,ドトールコーヒーショップ
cafe,35.6714519,139.7031503,ドトールコーヒーショップ
cafe,35.676658,139.6773041,ドトールコーヒーショップ
cafe,35.6619772,139.6974175,ドトールコーヒーショップ
cafe,35.6735944,139.6678168,ドトールコーヒーショップ
cafe,35.696818,139.6823205,ドトールコーヒーショップ
cafe,35.6976782,139.6707122,ドトールコーヒーショップ
cafe,35.7203426,139.6629108,ドトールコーヒーショップ
cafe,35.7232023,139.6382282,ドトールコーヒーショップ
cafe,35.7297568,139.7184336,ドトールコーヒーショップ
cafe,35.7318311,139.7148664,ドトールコーヒーショップ
cafe,35.7288781,139.7087206,ドトールコーヒーショップ
cafe,35.7335998,139.6979073,ドトールコーヒーショップ
cafe,35.7304089,139.7285255,ドトールコーヒーショップ
cafe,35.7253093,139.7308553,ドトールコーヒーショップ
cafe,35.7220076,139.7063164,ドトールコーヒーショップ
cafe,35.7286794,139.7122765,ドトールコーヒーショップ
cafe,35.7290079,139.7099153,ドトールコーヒーショップ
cafe,35.764434,139.31364,54Cafe&Crape
cafe,35.7296319,139.7148974,ドトールコーヒーショップ
cafe,35.7277404,139.7157613,ドトールコーヒーショップ
cafe,35.7278609,139.7108399,ドトールコーヒーショップ
cafe,35.7790472,139.7197293,ドトールコーヒーショップ
cafe,35.7594564,139.7224416,ドトールコーヒーショップ
cafe,35.7625939,139.7213894,ドトール
cafe,35.7660087,139.7281166,ドトールコーヒーショップ
cafe,35.7325828,139.768018,ドトールコーヒーショップ
cafe,35.7425569,139.7808912,ドトールコーヒーショップ
cafe,35.7586039,139.6899535,ドトール
cafe,35.7490227,139.7040917,ドトールコーヒーショップ
cafe,35.7593107,139.7137872,ドトールコーヒーショップ
cafe,35.7779303,139.6333411,ドトールコーヒーショップ
cafe,35.7500292,139.5871289,KEY'S CAFE
cafe,35.7379339,139.6545519,Starbucks
cafe,35.7599975,139.629391,ドトールコーヒーショップ
cafe,35.7495471,139.586664,ドトールコーヒーショップ
cafe,35.7522511,139.59514,ドトールコーヒーショップ
cafe,35.7372544,139.6529861,ドトールコーヒーショップ
cafe,35.7430207,139.6061707,ドトールコーヒーショップ
cafe,35.7371423,139.653955,ドトールコーヒーショップ
cafe,35.7387093,139.8491017,ドトールコーヒーショップ
cafe,35.7454684,139.8553835,ドトールコーヒーショップ
cafe,35.7700038,139.8696927,ドトールコーヒーショップ
cafe,35.6638641,139.8595599,ドトールコーヒーショップ
cafe,35.6539803,139.8819277,ドトールコーヒーショップ
cafe,35.6922792,139.8973018,ドトールコーヒーショップ
cafe,35.7058263,139.9045184,ドトールコーヒーショップ
cafe,35.7066394,139.842339,ドトールコーヒーショップ
cafe,35.7330761,139.8816353,ドトールコーヒーショップ
cafe,35.6629107,139.8718146,ドトールコーヒーショップ
cafe,35.6420215,139.2833503,ドトールコーヒーショップ
cafe,35.6251617,139.3948614,ドトールコーヒーショップ
cafe,35.656993,139.3129827,ドトールコーヒーショップ
cafe,35.6775021,139.3717822,ドトールコーヒーショップ
cafe,35.7063844,139.4099522,ドトールコーヒーショップ
cafe,35.7048954,139.5783483,ドトール吉祥寺元町通店
cafe,35.7014608,139.5454989,ドトールコーヒーショップ
cafe,35.7019014,139.5787364,ドトールコーヒーショップ 吉祥寺公園口店
cafe,35.7014074,139.5607878,ドトールコーヒーショップ
cafe,35.6721924,139.4803604,ドトールコーヒーショップ
cafe,35.6704047,139.4793658,ドトールコーヒーショップ
cafe,35.659601,139.4582777,ドトールコーヒーショップ
cafe,35.6535648,139.5431299,ドトールコーヒーショップ
cafe,35.6509056,139.5436817,ドトールコーヒーショップ
cafe,35.6608288,139.5849906,ドトールコーヒーショップ
cafe,35.5630827,139.4634062,ドトールコーヒーショップ
cafe,35.5283605,139.4631914,ドトールコーヒーショップ
cafe,35.5833685,139.4814859,ドトールコーヒーショップ
cafe,35.5356692,139.4726445,ドトールコーヒーショップ
cafe,35.5403857,139.4493868,ドトールコーヒーショップ
cafe,35.702047,139.5060625,ドトールコーヒーショップ
cafe,35.7266431,139.5128391,ドトールコーヒーショップ
cafe,35.6620784,139.4129825,ドトールコーヒーショップ
cafe,35.7784591,139.4961161,ドトールコーヒーショップ
cafe,35.6990109,139.4658671,ドトールコーヒーショップ
cafe,35.697176,139.4464317,ドトールコーヒーショップ
cafe,35.6330457,139.5777051,ドトールコーヒーショップ
cafe,35.7484629,139.4101457,ドトールコーヒーショップ
cafe,35.7362806,139.4242539,ドトールコーヒーショップ
cafe,35.7722456,139.5202189,ドトールコーヒーショップ
cafe,35.7597958,139.5336388,ドトールコーヒーショップ
cafe,35.7607735,139.5347638,ドトールコーヒーショップ
cafe,35.6291583,139.448641,ドトールコーヒーショップ
cafe,35.652165,139.4470372,ドトールコーヒーショップ
cafe,35.7510281,139.5451781,ドトールコーヒーショップ
cafe,35.7274555,139.5392777,ドトールコーヒーショップ
cafe,35.7606134,139.3584295,ドトールコーヒーショップ
cafe,35.7585959,139.5286159,サンマルクカフェ
cafe,35.7289614,139.5396613,サンマルクカフェ
cafe,35.7033031,139.5789553,サンマルクカフェ
cafe,35.7041259,139.6203294,サンマルクカフェ
cafe,35.7612714,139.7214641,サンマルクカフェ
cafe,35.7792403,139.7236898,サンマルクカフェ
cafe,35.7323051,139.7143337,サンマルクカフェ
cafe,35.728952,139.7130668,サンマルクカフェ
cafe,35.6934578,139.69325,サンマルクカフェ
cafe,35.7018169,139.6970143,サンマルクカフェ
cafe,35.694589,139.7001293,サンマルクカフェ
cafe,35.7499616,139.4725839,サンマルクカフェ
cafe,35.6913607,139.6936576,サンマルクカフェ
cafe,35.6928278,139.6989357,サンマルクカフェ
cafe,35.6886626,139.6943711,サンマルクカフェ
cafe,35.6881819,139.7027019,サンマルクカフェ
cafe,35.6888822,139.7101624,サンマルクカフェ
cafe,35.7370415,139.424403,サンマルクカフェ
cafe,35.7175628,139.7364835,サンマルクカフェ
cafe,35.6627321,139.7088119,サンマルクカフェ
cafe,35.7008637,139.7470762,サンマルクカフェ
cafe,35.7094186,139.7530521,サンマルクカフェ
cafe,35.7246553,139.7628476,サンマルクカフェ
cafe,35.6770053,139.7367651,サンマルクカフェ
cafe,35.6762822,139.737239,サンマルクカフェ
cafe,35.6472385,139.708625,サンマルクカフェ
cafe,35.699456,139.7621362,サンマルクカフェ
cafe,35.6909409,139.7573251,サンマルクカフェ
cafe,35.7423732,139.7808991,サンマルクカフェ
cafe,35.7743024,139.7856806,サンマルクカフェ
cafe,35.7090842,139.7737902,サンマルクカフェ
cafe,35.7070753,139.7740922,サンマルクカフェ
cafe,35.7758653,139.789407,サンマルクカフェ
cafe,35.6178512,139.6762389,サンマルクカフェ
cafe,35.6932036,139.7707652,サンマルクカフェ
cafe,35.698912,139.7748588,サンマルクカフェ
cafe,35.6912038,139.7702381,サンマルクカフェ
cafe,35.6915345,139.7715414,サンマルクカフェ
cafe,35.6777903,139.7630482,サンマルクカフェ
cafe,35.7346033,139.2740944,サンマルクカフェ
cafe,35.6621535,139.380668,サンマルクカフェ
cafe,35.6145047,139.3800595,サンマルクカフェ
cafe,35.6340826,139.7173313,サンマルクカフェ
cafe,35.6907478,139.7781691,サンマルクカフェ
cafe,35.6748036,139.7618878,サンマルクカフェ
cafe,35.6694298,139.7650975,サンマルクカフェ
cafe,35.7130267,139.793021,サンマルクカフェ
cafe,35.663161,139.7617991,サンマルクカフェ
cafe,35.6196983,139.7041241,サンマルクカフェ
cafe,35.6561947,139.7564348,サンマルクカフェ
cafe,35.7495524,139.8055329,サンマルクカフェ
cafe,35.6860802,139.7814032,サンマルクカフェ
cafe,35.7494221,139.8059301,サンマルクカフェ
cafe,35.712247,139.7986193,サンマルクカフェ
cafe,35.6266948,139.7419659,サンマルクカフェ
cafe,35.6227,139.749743,サンマルクカフェ
cafe,35.6563577,139.7920776,サンマルクカフェ
cafe,35.6059577,139.7338345,サンマルクカフェ
cafe,35.6275655,139.7731339,サンマルクカフェ
cafe,35.6100024,139.6436219,ベクトル
cafe,35.738709,139.8492907,サンマルクカフェ
cafe,35.5878088,139.7279286,サンマルクカフェ
cafe,35.7155017,139.8598951,サンマルクカフェ
cafe,35.6458672,139.8265318,サンマルクカフェ
cafe,35.562212,139.7133325,サンマルクカフェ
cafe,35.6931414,139.8976477,サンマルクカフェ
cafe,35.6986625,139.7760885,カフェ・ベローチェ
cafe,35.6992815,139.7746098,カフェ・ベローチェ
cafe,35.697777,139.7844349,カフェ・ベローチェ
cafe,35.6977506,139.7868144,カフェ・ベローチェ
cafe,35.7619774,139.8262067,カフェ・ベローチェ
cafe,35.7018365,139.7433785,カフェ・ベローチェ
cafe,35.6511824,139.684975,カフェ・ベローチェ
cafe,35.7290107,139.7174198,カフェ・ベローチェ
cafe,35.7319786,139.7067264,カフェ・ベローチェ
cafe,35.7327667,139.7147845,カフェ・ベローチェ
cafe,35.7617247,139.7068029,カフェ・ベローチェ
cafe,35.6958419,139.7750374,カフェ・ベローチェ
cafe,35.6957139,139.7769564,カフェ・ベローチェ
cafe,35.7062568,139.772559,カフェ・ベローチェ
cafe,35.5893781,139.7289467,カフェ・ベローチェ
cafe,35.5859065,139.7282089,カフェ・ベローチェ
cafe,35.7039067,139.7335809,カフェ・ベローチェ
cafe,35.6908781,139.7725308,カフェ・ベローチェ
cafe,35.7097855,139.7529365,カフェ・ベローチェ
cafe,35.6969899,139.8287173,カフェ・ベローチェ
cafe,35.6791562,139.7799185,カフェ・ベローチェ
cafe,35.6786611,139.7780196,カフェ・ベローチェ
cafe,35.6944336,139.7703856,カフェ・ベローチェ
cafe,35.6905665,139.7642662,カフェ・ベローチェ
cafe,35.6922274,139.7656344,カフェ・ベローチェ
cafe,35.6714791,139.7170534,カフェ・ベローチェ
cafe,35.618353,139.7415627,カフェ・ベローチェ
cafe,35.6734584,139.7709372,カフェ・ベローチェ
cafe,35.6731566,139.7683168,カフェ・ベローチェ
cafe,35.6917839,139.7799168,カフェ・ベローチェ
cafe,35.643108,139.748788,カフェ・ベローチェ
cafe,35.6560408,139.697903,カフェ・ベローチェ
cafe,35.6618774,139.6955382,カフェ・ベローチェ
cafe,35.7030578,139.5793469,Rose Bakery
cafe,35.6891949,139.7101035,THE SMOKIST COFFEE
cafe,35.693907,139.7064277,カフェ・ベローチェ
cafe,35.6902098,139.7058316,カフェ・ベローチェ
cafe,35.6914219,139.7099038,カフェ・ベローチェ
cafe,35.6666435,139.7543277,カフェ・ベローチェ
cafe,35.6679367,139.7550895,カフェ・ベローチェ
cafe,35.6641851,139.7568644,カフェ・ベローチェ
cafe,35.7015126,139.7534214,カフェ・ベローチェ
cafe,35.7042402,139.771633,カフェ・ベローチェ
cafe,35.6681127,139.7729637,カフェ・ベローチェ
cafe,35.6744647,139.816389,カフェ・ベローチェ
cafe,35.6683243,139.8167786,カフェ・ベローチェ
cafe,35.668859,139.7488231,カフェ・ベローチェ
cafe,35.706029,139.7764206,カフェ・ベローチェ
cafe,35.68282,139.7768027,カフェ・ベローチェ
cafe,35.68075,139.7747438,カフェ・ベローチェ
cafe,35.6885642,139.7805704,カフェ・ベローチェ
cafe,35.6871286,139.7818129,カフェ・ベローチェ
cafe,35.7515068,139.6394073,カフェ・ベローチェ
cafe,35.6717961,139.7096762,Deus Ex Machina
cafe,35.6576537,139.3367793,カフェ・ベローチェ
cafe,35.6779335,139.7754417,カフェ・ベローチェ
cafe,35.5418517,139.4488858,カフェ・ベローチェ
cafe,35.7524718,139.545341,カフェ・ベローチェ
cafe,35.7321869,139.7159134,カフェ・ベローチェ
cafe,35.7251241,139.7111348,カフェ・ベローチェ
cafe,35.7276362,139.7129197,カフェ・ベローチェ
cafe,35.7257111,139.7131838,カフェ・ベローチェ
cafe,35.6695124,139.821305,カフェ・ベローチェ
cafe,35.6340953,139.7136214,カフェ・ベローチェ
cafe,35.6876976,139.7207331,カフェ・ベローチェ
cafe,35.711725,139.7096703,しろくまカフエ
cafe,35.727918,139.714036,Brooklyn Mills
cafe,35.7285641,139.7153434,Pronto
cafe,35.7003759,139.5792054,茶廊 万亭
cafe,35.6693895,139.6799632,NODE UEHARA
cafe,35.5734517,139.4200819,快活Club 町田忠生店
cafe,35.6348675,139.7162905,ルノアール
cafe,35.69286,139.5694394,鷹匠茶屋
cafe,35.7815353,139.2275526,喫茶　木の花
cafe,35.7221185,139.4328298,星乃珈琲店
cafe,35.6657988,139.7393587,福島屋
cafe,35.6996155,139.732029,クローバー
cafe,35.7001043,139.7329888,BLOWS IN
cafe,35.6993616,139.730159,山下コーヒー(株)
cafe,35.7004931,139.7352031,Maison Kayser
cafe,35.7502893,139.4730482,エコモコ
cafe,35.6613097,139.5855667,猿田彦珈琲
cafe,35.8258238,139.2900311,ゆば
cafe,35.7008278,139.7583622,リアン・サンドイッチ・カフェ
cafe,35.6572055,139.6601457,DIDDY WA DITTY
cafe,35.6530514,139.6646506,せざんぬ
cafe,35.5793194,139.7184228,すまいるブレイク
cafe,35.6963864,139.569821,KOTORI CAFE
cafe,35.6705421,139.7497275,エクセルシオール カフェ
cafe,35.672285,139.768511,ミタスカフェ
cafe,35.7005242,139.5588514,ふれーず
cafe,35.6288334,139.7372906,Mangotree Cafe
cafe,35.7101305,139.6568167,ばらーど
cafe,35.736843,139.48732,永田珈琲
cafe,35.7377538,139.483794,Shell Bread Cafe
cafe,35.73127,139.713877,皇琲亭
cafe,35.7659203,139.7283154,E’PLONTO
cafe,35.6912763,139.7711972,Pronto
cafe,35.7263694,139.7660677,HAGISO
cafe,35.7250537,139.7614288,Espresso Factory
cafe,35.688257,139.335732,KOGUMA cafe
cafe,35.6921361,139.6996454,サンマルクカフェ
cafe,35.7005816,139.5044121,サンマルクカフェ
cafe,35.6593191,139.6979436,サンマルクカフェ
cafe,35.7663594,139.8089131,サンマルクカフェ
cafe,35.6308587,139.794977,スターバックス
cafe,35.6317895,139.7974138,Royal Cafeteria
cafe,35.6954738,139.7606392,上島珈琲店
cafe,35.746239,139.33723,カフェドノエル
cafe,35.7004724,139.5248664,すずのすけの豆
cafe,35.7010973,139.5249317,複合カフェ Relax
cafe,35.7017731,139.5414262,コーヒーロースト
cafe,35.6478688,139.7031768,Haco Cafe
cafe,35.698018,139.7600859,ピアノフォルテ
cafe,35.7018701,139.7695113,ねこ・JaLaLa
cafe,35.7023449,139.7695807,Cafe Mai:lish
cafe,35.749295,139.325091,アルルカン
cafe,35.6790969,139.7087734,LAITIER
cafe,35.7053662,139.6652661,ルノアール
cafe,35.6192636,139.7761792,Miraikan Kitchen
cafe,35.70744,139.616391,CAFE and BAR POCO
cafe,35.7050823,139.6697567,檸檬樹
cafe,35.7046325,139.6715944,ぐりーん
cafe,35.7052803,139.6683923,FujiCafe
cafe,35.6178695,139.7784404,グリーンズシェフ
cafe,35.7034993,139.5814809,TONE CAFE
cafe,35.6508004,139.748504,PAGLIACCIO
cafe,35.6507241,139.7488162,タリーズコーヒー
cafe,35.737829,139.513266,コメダ珈琲店
cafe,35.747421,139.428104,PACE
cafe,35.746131,139.42102,快活CLUB
cafe,35.640045,139.2454584,ふじだな
cafe,35.6837076,139.7375591,エクセルシオール カフェ
cafe,35.7076574,139.7617975,アンモナイト コーヒーマーケット
cafe,35.7473845,139.6477398,志村電機珈琲焙煎所
cafe,35.6041758,139.7309949,黒猫食堂
cafe,35.6698721,139.4759756,麻屋
cafe,35.7058445,139.6505763,ルノアール
cafe,35.784419,139.258734,Tea Room
cafe,35.8250571,139.2879421,コンブリオ
cafe,35.6688547,139.7050727,東京アパートメントカフェ
cafe,35.7910528,139.2280051,Rose Town Tea Garden
cafe,35.6967447,139.7604507,スタイルズケイクス &カンパニー
cafe,35.6716523,139.7062268,Togo Cafe
cafe,35.700942,139.6474547,カフェ 分福
cafe,35.6956208,139.7626421,ジャズ オリンパス！
cafe,35.6943072,139.7592189,茶房きゃんどる
cafe,35.6957191,139.7599364,ミロンガ
cafe,35.6956566,139.7598036,ラドリオ
cafe,35.6956151,139.7573744,らくごカフェ
cafe,35.679383,139.684038,かんてんぱぱカフェ
cafe,35.6969953,139.7689027,ショパン
cafe,35.6974281,139.4119979,VELOCE
cafe,35.69683,139.411276,Sta Cafe
cafe,35.739955,139.671087,パーラー江古田
cafe,35.6710556,139.4828846,cafe あおば
cafe,35.6704338,139.4830913,Kotocafe
cafe,35.669889,139.4826836,Cafe&Bar ipini
cafe,35.6701614,139.481781,こーひーめいかん
cafe,35.6986324,139.7565645,神田白十字
cafe,35.69547,139.669605,珈琲や
cafe,35.7165042,139.7766085,Atelier de Reve
cafe,35.6907172,139.7076254,Cafe Lavanderia
cafe,35.6037374,139.6712395,Onibus Coffee
cafe,35.7001586,139.7703252,Mermaid Ocean
cafe,35.7124868,139.7593813,喫茶ルオー
cafe,35.7089631,139.7592417,金魚坂
cafe,35.7095295,139.7563965,お休み処 ひとは
cafe,35.6994011,139.7649426,穂高
cafe,35.6936311,139.7720058,北欧紅茶
cafe,35.801449,139.1834153,つちのこＣＡＦＥ
cafe,35.6812674,139.8068849,Kuudle
cafe,35.6511162,139.7232227,Juice & Tea Bar Origami
cafe,35.6729438,139.7961232,パディントン
cafe,35.7196271,139.6637463,AlcolicCafeロジェ
cafe,35.642968,139.6064392,カフェ・メロディ
cafe,35.7447538,139.8837108,ラトリエ ドゥ シュクル
cafe,35.6970643,139.8285615,侍 亀戸店
cafe,35.683254,139.6151467,ドトールコーヒーショップ
cafe,35.6890217,139.768933,Pronto
cafe,35.7538736,139.7364083,珈琲館
cafe,35.7020638,139.5762707,保久良珈琲店
cafe,35.6906144,139.7021221,椿屋コーヒ店
cafe,35.781058,139.7181237,プチモンドフルーツパーラー
cafe,35.6736342,139.7039607,カフェアンセーニュダングル
cafe,35.6649295,139.7003539,Au temps jadis cr perie
cafe,35.6906505,139.7068316,8bit cafe
cafe,35.6476894,139.7108363,Japenese Ice Ouca (Only in Jp)
cafe,35.7124936,139.777367,Nero Maru
cafe,35.715775,139.430078,pain pati
cafe,35.6706938,139.4763759,くろまめ
cafe,35.6700019,139.4766425,蔵カフェ
cafe,35.6690396,139.7544389,イルバール
cafe,35.6666141,139.7038422,quiet cafe
cafe,35.7026174,139.6179515,Koo-Koo
cafe,35.688744,139.47968,D's Coffee
cafe,35.686612,139.440457,Refuge
cafe,35.7043768,139.5988784,しみず
cafe,35.7046273,139.5983024,神楽茶楼
cafe,35.694569,139.419915,Neighbors Brunch
cafe,35.7034109,139.5841084,CAFE ZENON
cafe,35.692081,139.7054655,Mariage Frères
cafe,35.659526,139.339782,歌カフェ
cafe,35.6524403,139.5434469,アフタヌーンティー
cafe,35.7311258,139.7125525,ringo apple pie
cafe,35.6478984,139.7029577,cafe quiet area
cafe,35.6978456,139.6524265,Café Neige
cafe,35.6585758,139.3442415,シフォンカフェ ボン・ムー
cafe,35.6590316,139.3357957,カフェOVER
cafe,35.6689444,139.7065608,Kawaii Monster Café
cafe,35.632282,139.3273542,タリーズコーヒー
cafe,35.7100304,139.7758299,珈琲 王城
cafe,35.7131401,139.7767798,Beck's
cafe,35.6955048,139.7822684,たいこ茶屋
cafe,35.6838979,139.8643153,CAFE &BAKERY AZALEE
cafe,35.6676562,139.7066756,Island Vintage Coffee
cafe,35.6511011,139.7245298,Nem
cafe,35.718777,139.7731607,上島珈琲店
cafe,35.721146,139.7707707,カヤバ珈琲
cafe,35.6791819,139.7377832,スターバックス
cafe,35.6593335,139.7000349,L'Occitane Café
cafe,35.6776767,139.6770933,Poem Coffee House
cafe,35.7318724,139.7101118,カフェ ド 巴里
cafe,35.7007426,139.7718773,＠ほぉ～むカフェ
cafe,35.5282409,139.4847774,コナ
cafe,35.6647834,139.71285,Aoyama Flower Market (青山フラワーマーケット）
cafe,35.5446647,139.7690464,CAFE CARDINAL 4F
cafe,35.7532518,139.8513689,アオトコーヒー
cafe,35.7087393,139.8039477,ドトールコーヒーショップ
cafe,35.6760885,139.7759195,Roar Coffee
cafe,35.6954753,139.6983056,タリーズコーヒー
cafe,35.6777552,139.8051446,Allpress Espresso Cafe
cafe,35.5861505,139.7268263,珈琲亭 ルアン
cafe,35.6713262,139.7637212,Cha Ginza
cafe,35.6816741,139.7717142,カフェ・ラ・コルテ
cafe,35.7322922,139.7182926,WONDER PARLOR
cafe,35.6671774,139.729581,512cafe&grill
cafe,35.6793146,139.6862242,Zaroff
cafe,35.680122,139.6862867,LIBRE
cafe,35.6713398,139.7978555,エスポワール
cafe,35.7051375,139.6333221,FIGALO CAFE
cafe,35.705053,139.6341684,tommy cafe
cafe,35.7051979,139.6324772,ヴィオロン
cafe,35.7050133,139.6335507,黒猫茶房
cafe,35.6590133,139.7957572,Nani Nani Hawaiian Café 
cafe,35.661551,139.700226,Rakuten cafe 樂天咖啡
cafe,35.6844146,139.7966401,iki Espresso
cafe,35.6978535,139.8162659,デリカップ
cafe,35.6708679,139.7052902,サーティワン
cafe,35.6703269,139.7058014,コムクレープ
cafe,35.7782788,139.7211996,昔ながらの喫茶店友路有 赤羽2号店
cafe,35.7794319,139.72214,昔ながらの喫茶店友路有 赤羽本店
cafe,35.7769125,139.7221995,やなか珈琲店
cafe,35.777708,139.7221197,カスタマカフェ
cafe,35.6786246,139.6933885,Cafe Di Espresso
cafe,35.654583,139.63277,くるみ堂
cafe,35.65979,139.7558899,Green Coffee Grass
cafe,35.6610587,139.7561532,Poko Bagel Café
cafe,35.7068616,139.5778219,Deva Deva Cafe
cafe,35.5845399,139.6986287,cafe CERCLE
cafe,35.6068841,139.6681872,BAKE
cafe,35.6677447,139.6901323,Dog Heart from Aquamarine
cafe,35.6939193,139.7628623,カフェ ド クルーセ
cafe,35.693295,139.7621683,Coffee ITO
cafe,35.6679258,139.7622872,Cafe de l'ambre
cafe,35.7161709,139.7806257,Coffee House Katsura
cafe,35.6030168,139.4345435,ピアノカフェ ショパン
cafe,35.6318709,139.6617563,Primoordine
cafe,35.6602041,139.6667102,うさぎカフェおひさま
cafe,35.6720118,139.7145518,GLOCAL CAFE
cafe,35.663696,139.346883,mp
cafe,35.6983043,139.7339742,珈琲館牛込
cafe,35.6946224,139.7377803,cafe katy
cafe,35.697788,139.725905,明治園薬王寺支店
cafe,35.6910038,139.7981026,ハヤシヤ
cafe,35.6546965,139.5478008,くもくま堂
cafe,35.6548523,139.5448923,コロラド
cafe,35.7016799,139.699217,ルノアール
cafe,35.6797125,139.7201177,Pronto
cafe,35.6795105,139.7192419,Cafe Shakey's
cafe,35.6800121,139.719945,千疋屋総本店
cafe,35.670714,139.7047244,カフェ×スイーツパラダイス店
cafe,35.6426681,139.6550811,PORTLATE
cafe,35.6973351,139.8074327,北斎茶房
cafe,35.7040531,139.6095371,GARAM CURL
cafe,35.7019821,139.7713366,めいどりーみん
cafe,35.7312713,139.7061069,ドリームコーヒー
cafe,35.6767958,139.7689319,Meiji 100% Chocolate Cafe
cafe,35.6476704,139.711637,ひいらぎ
cafe,35.6726101,139.7036532,ネスカフェ
cafe,35.6698003,139.8176513,Pronto
cafe,35.6731486,139.7956251,珈琲館
cafe,35.7218453,139.7901371,空想カフェ
cafe,35.6831235,139.7738496,Cafe Toyo
cafe,35.6864045,139.7741125,Café Aimée Vibert
cafe,35.6828414,139.7735264,GODIVA cafe
cafe,35.6833131,139.7739703,エクセルシオール カフェ
cafe,35.6814835,139.7726084,ルノアール
cafe,35.7513639,139.3884279,高倉町珈琲 武蔵村山店
cafe,35.6553815,139.7366688,Oslo Coffee
cafe,35.6550508,139.7354831,Honolulu Coffee
cafe,35.7049962,139.5735683,珈琲散歩
cafe,35.6943803,139.7582429,ミカフェート
cafe,34.0612042,139.5476019,ハート食堂
cafe,35.6928203,139.6951635,Paul Bassett
cafe,35.7052042,139.6494946,FRUITS STATION 果樹園
cafe,35.7036493,139.7332128,Akomeya
cafe,35.5442746,139.4551418,喫茶けやき
cafe,35.7543761,139.3104674,Cafe 茱茰
cafe,35.6782457,139.7693364,Pronto
cafe,35.6613505,139.5857131,Café Kaldino
cafe,35.6613287,139.5872912,Kohoku
cafe,35.6630122,139.584097,Moriva coffee
cafe,35.6587855,139.5891879,たんぽぽ
cafe,35.6634197,139.5838905,もきちカフェ
cafe,35.6613963,139.5854395,星乃珈琲店
cafe,35.6662879,139.5826178,3 beans cafe
cafe,35.7326491,139.7585098,Jupiter Coffee
cafe,35.7526518,139.8036269,sd cafe
cafe,35.6979008,139.7750797,Maidcafe Pinafore
cafe,35.647755,139.4527003,cafe de Fleurus 27
cafe,35.598787,139.736616,ユウザン
cafe,35.6877163,139.7421996,JUPITLES COFFEE ROASTERS
cafe,35.6870361,139.7416583,ドトールコーヒーショップ
cafe,35.6240428,139.4306868,ねこカフェ たまねこ
cafe,35.6507227,139.4489727,学園食堂
cafe,35.6508521,139.4482639,ドトールコーヒーショップ
cafe,35.6655638,139.6922263,CAMELBACK sandwich&espresso
cafe,35.7217184,139.7615863,Cafe Yorimichi
cafe,35.7247335,139.7535469,マロニエ
cafe,35.6769902,139.761642,Ippodo tea store
cafe,35.6698363,139.477087,コットン畑
cafe,35.6946228,139.6907594,エクセルシオール カフェ
cafe,35.6682315,139.4781276,カフェ　サンク
cafe,35.7695748,139.3047134,ジロー珈琲 羽村店
cafe,35.6891903,139.8158514,珈琲館
cafe,35.6812508,139.5704263,刈谷珈琲店
cafe,35.6571132,139.7077985,青山壹番館
cafe,35.7023551,139.7521488,エクセルシオール カフェ
cafe,35.686848,139.3412657,ＣａｆｅＬａＧｉｔａ
cafe,35.6782219,139.4780458,No-Z
cafe,35.5384288,139.4736085,星乃珈琲店
cafe,35.7082891,139.7233824,SOJO
cafe,35.7440048,139.6484302,ティティカフェ
cafe,35.6936463,139.7020526,Cat Cafe Calico
cafe,35.5903148,139.478997,コメダ珈琲店 町田鶴川店
cafe,35.6619316,139.7319188,ハリネズミ
cafe,35.7199844,139.8154637,東向島珈琲店
cafe,35.6584809,139.3385647,コメダ珈琲店
cafe,35.6207734,139.7025827,レブレッソ 目黒武蔵小山店
cafe,35.654134,139.7628951,東京愛らんど
cafe,35.6834274,139.7662946,Pit ねのひ
cafe,35.6236568,139.7205837,カフェ・ベローチェ
cafe,35.6828203,139.6165751,白兎珈琲店
cafe,35.656139,139.322256,ベルダム
cafe,35.7555187,139.6632068,ノエカフェ
cafe,35.6624241,139.6659996,喫茶ネグラ
cafe,35.674857,139.7657176,十一房咖啡店
cafe,35.6690299,139.75285,草枕
cafe,35.6754881,139.7366485,コヒアアラビカ
cafe,35.7075699,139.7644778,タイズ
cafe,35.7011505,139.5837443,Ryumon Coffeestand
cafe,35.6464042,139.7065035,ヴェルデ
cafe,35.7286454,139.6828453,C'EST BIEN
cafe,35.6678469,139.7521649,へツケルン
cafe,35.6564703,139.5520258,コーヒーロースト
cafe,35.6604698,139.5218329,ふうの木
cafe,35.6582046,139.7235925,Cafe foredor
cafe,35.6501707,139.7222354,MAX BRENNER CHOCOLATE BAR
cafe,35.7819892,139.8674311,荻野氏宅
cafe,35.6933772,139.6982775,星野珈琲
cafe,35.5287423,139.484823,ル・コルニュイエ
cafe,35.711173,139.6082145,ナナロクカフェ
cafe,35.7100648,139.6120173,みつばち
cafe,35.7104009,139.6107518,公孫樹
cafe,35.6920693,139.3837152,cafeひこばえ
cafe,35.6619979,139.7028366,347 cafe
cafe,35.7035456,139.6344933,ラポム
cafe,35.6678813,139.7171534,Link Cafe Aoyama
cafe,35.6684723,139.7679498,ルノアール
cafe,35.7650033,139.8518796,スターバックス
cafe,35.6722381,139.7035657,Owl Cafe and Village
cafe,35.6694275,139.7643067,スターバックス
cafe,35.5731314,139.6920988,美珈茶
cafe,35.7321102,139.7292979,Pronto
cafe,35.6938189,139.4124136,麦麦
cafe,35.6973608,139.4141275,スターバックス
cafe,35.6605126,139.5858648,彩茶房
cafe,35.7180502,139.7951288,JOY
cafe,35.7170137,139.7951121,ロッジ赤石
cafe,35.733145,139.7395043,Beck's Coffee Shop
cafe,35.7117074,139.7968887,タリーズコーヒー
cafe,35.7007854,139.7748636,アキバフクロウ
cafe,35.7073222,139.635404,珈琲雨水
cafe,35.7062835,139.6355697,Magnolia
cafe,35.7020356,139.6347607,Cafe La KaM
cafe,35.7017707,139.6343857,Cafe spile
cafe,35.7066217,139.7701032,ツェーンコーヒー
cafe,35.7050249,139.7672197,サカノウエカフェ
cafe,35.7058879,139.7710582,コロコロ堂
cafe,35.7058945,139.7705206,不純喫茶ドープ
cafe,35.7063871,139.7700925,New Bamboo
cafe,35.7044783,139.7731186,SHI-TEN
cafe,35.7069334,139.7716363,うさぎやCAFE
cafe,35.7044049,139.7721691,APPLE FARM
cafe,35.7055881,139.770237,喫茶ヒロカワ
cafe,35.7047218,139.7717093,シャンズ・カフェ
cafe,35.7019683,139.7719537,魔法メイド学園アルティマ
cafe,35.7019807,139.7719005,CHRONOSGATE
cafe,35.6304419,139.7377785,ルノアール
cafe,35.6607231,139.7054703,コメダ珈琲店
cafe,35.7378877,139.7595553,komeda's coffee
cafe,35.7381036,139.7606851,スターバックス
cafe,35.6600452,139.695925,Gran cyber cafe bagua (private theatre)
cafe,35.6595597,139.708824,Sky High
cafe,35.8151531,139.1293158,喫茶 山鳩
cafe,35.7056777,139.7726574,Lapin
cafe,35.7029739,139.7671854,Porco Piatto
cafe,35.7205152,139.7592493,Cafe Cafe Hana
cafe,35.7079571,139.770471,どりーむ
cafe,35.704921,139.36649,ジロー珈琲
cafe,35.7046663,139.7711907,バード
cafe,35.7018684,139.775986,Kielo Coffee
cafe,35.7045305,139.7730898,あずみ野
cafe,35.6971413,139.6799473,ドエル
cafe,35.702168,139.7695382,CROWN TIARA
cafe,35.7144415,139.6342935,ANTIQUES CAFE
cafe,35.7092515,139.6346766,ZAGURI
cafe,35.7045327,139.6344261,琥珀茶房
cafe,35.6703552,139.6004448,sun deco
cafe,35.6710055,139.7618754,オスロコーヒー
cafe,35.7245218,139.7642393,Petticoat Lane
cafe,35.6956017,139.627287,タータン珈琲
cafe,35.6813015,139.6290863,TEODORA
cafe,35.7126387,139.7789763,桂
cafe,35.6563135,139.7111033,カフェラウンジ若木が丘
cafe,35.6923067,139.70458,リジーグ
cafe,35.705299,139.7697206,フレンチ・ヴォーグ
cafe,35.7030778,139.7668356,保護猫カフェ ネコリパブリック
cafe,35.7040081,139.7669106,自家焙煎珈琲 みじんこ
cafe,35.6511551,139.6378156,Cappuccino
cafe,35.6868908,139.6142505,星野珈琲店
cafe,35.6948617,139.7613879,カフェ・ラ・コルテ
cafe,35.7099863,139.773263,ルノアール
cafe,35.6887888,139.7120669,ブロント
cafe,35.7012905,139.6785068,Coffee Dogs
cafe,35.7028664,139.7657035,青林檎
cafe,35.7005077,139.3886052,ママンカフェ
cafe,35.7020842,139.771902,もののぷ
cafe,35.7016463,139.695468,ルノアール
cafe,35.6539529,139.7093452,Grain bread brew
cafe,35.701342,139.740706,上島珈琲店
cafe,35.7011615,139.7405079,NAGASHIMA
cafe,35.7016874,139.7390894,椿屋珈琲店
cafe,35.7006977,139.7852339,Coffee さかえ
cafe,35.7011648,139.7473778,ドトールコーヒーショップ
cafe,35.6994712,139.7454736,Cafe RAG TIME
cafe,35.7065446,139.7174186,茶箱
cafe,35.7034927,139.7358669,珈琲館神楽坂店
cafe,35.7015371,139.7442103,カフェ・ド・クリエ
cafe,35.6985104,139.7565183,珈琲エリカ
cafe,35.7616213,139.718524,リトルコ
cafe,35.682206,139.6267163,珈琲館
cafe,35.6843218,139.6274029,レモンの木
cafe,35.7615233,139.7205021,ボニーカフェ
cafe,35.7071775,139.7743664,ルノアール
cafe,35.7202559,139.6534147,ABU
cafe,35.7101442,139.7768857,ドトールコーヒーショップ
cafe,35.7306578,139.7294401,East Yeast
cafe,35.7043436,139.7727311,Saha
cafe,35.7121789,139.7746823,タリーズコーヒー
cafe,35.6953672,139.7938163,ニューストン
cafe,35.67435,139.7396766,山王茶寮
cafe,35.7668714,139.7307294,ル・ウエスト
cafe,35.7105768,139.7731305,ルノアール
cafe,35.7025971,139.7725352,もふれる
cafe,35.6951322,139.8108335,Asian mint cafe
cafe,35.6945482,139.7854907,SQUARE Cafe
cafe,35.66398,139.8574866,フォーシーズンズカフェ
cafe,35.699987,139.7210298,モンサント
cafe,35.7044397,139.7424584,ボローニャ
cafe,35.6076266,139.7450871,ハマーカフェ
cafe,35.7022388,139.6529096,高園寺
cafe,35.7000151,139.6474902,蹴球乃瀧
cafe,35.6999719,139.6475544,light side cafe
cafe,35.6996458,139.6473554,honohono cafe
cafe,35.6991931,139.6475655,AMP
cafe,35.6987821,139.6474593,Coffee Cone
cafe,35.6983426,139.6476839,meri-melo
cafe,35.6601328,139.7049004,illy
cafe,35.6608523,139.7053047,L. Lovers R
cafe,35.6605898,139.7052299,CAFE &LOUNGE RYUKODO
cafe,35.7078413,139.7693606,やなか珈琲店
cafe,35.7093688,139.7731049,タリーズコーヒー
cafe,35.7091344,139.7735767,カフェラミル
cafe,35.7643984,139.7216702,カラオケ ひまわり
cafe,35.7645111,139.721349,fuwari
cafe,35.7109565,139.7743522,ルノアール
cafe,35.7048275,139.6364973,Gong cha
cafe,35.7050252,139.6377564,スターバックス
cafe,35.7046905,139.6383797,Asagaya Cafe
cafe,35.6436878,139.6089254,patisserie-cafe
cafe,35.7109906,139.7731378,ティールームクローバー
cafe,35.6672709,139.6022645,ドトールコーヒーショップ
cafe,35.6712671,139.6018687,珈琲びぃどろ
cafe,35.6713492,139.6018165,宝石箱
cafe,34.3283055,139.2153333,島cafe
cafe,35.7024311,139.7714105,Chatime
cafe,35.7116763,139.7778732,上島珈琲店
cafe,35.7026704,139.7637512,MediCafe
cafe,35.7095968,139.7600716,BONART
cafe,35.7136321,139.7590725,Coffee こゝろ
cafe,35.7226926,139.7533051,イヴレッサ アムール
cafe,35.7226676,139.7532233,WITCH TEA
cafe,35.72204,139.7526003,木村コーヒー店
cafe,35.7219775,139.7525817,ケニヤン
cafe,35.7192399,139.7493532,SABOTEN COFFEE
cafe,35.7089714,139.7701994,珈琲DEPEND
cafe,35.7166544,139.7261066,cafe Letagere
cafe,35.7042713,139.7723767,Cafe 眠り猫
cafe,35.7034666,139.7726215,カフェ トリオンプ
cafe,35.7044128,139.7745533,Kawase Coffee
cafe,35.7225018,139.7041926,La Cucina Caffé
cafe,35.7075614,139.7746679,BECK'S COFFEE
cafe,35.6826407,139.8162228,サンゴカフェ
cafe,35.6655358,139.7591114,ルノアール
cafe,35.665956,139.7594966,ポンヌフ
cafe,35.6625186,139.7604031,タリーズコーヒー
cafe,34.5290202,139.2786866,茶房かおり
cafe,35.6657547,139.759244,スターバックスコーヒー
cafe,35.7097865,139.7802101,Cafe De West
cafe,35.7099787,139.7801367,岡埜
cafe,34.3263762,139.2208683,NINZ COFFEE
cafe,35.7615554,139.7237114,アルカード
cafe,35.7072388,139.7653252,Wood Block
cafe,35.7060442,139.7686605,Azekura
cafe,35.761784,139.7250793,Cafe space 10J
cafe,35.7020267,139.7707439,Akibaスモーカーズ
cafe,35.7003988,139.6595559,La Reine
cafe,35.697602,139.6443956,MyNT
cafe,35.7106603,139.7820065,Coffeeヤマ
cafe,35.7072813,139.7672041,ヒヨリキッサ
cafe,35.706109,139.7744437,FIDDLER
cafe,35.7092224,139.7702135,Cafe de Roche
cafe,35.7616273,139.7244507,Cafe Restrant KIRIN
cafe,35.6826862,139.7743971,Maison Kayser
cafe,35.6890574,139.5105906,Café hono hono
cafe,35.6924451,139.7635172,米本珈琲
cafe,35.6996691,139.7693421,Sugar Maid
cafe,35.6638026,139.5463477,Café A MUSE
cafe,35.7105871,139.7126536,Lagoon
cafe,35.7096156,139.7161628,SHIRUCAFE
cafe,35.6931829,139.7039726,ルノアール
cafe,35.7066023,139.7704294,るる
cafe,35.7072576,139.7676966,茶房松緒
cafe,35.7214077,139.6369522,EL VIENT
cafe,35.7031985,139.7712851,勉強カフェ
cafe,35.7014604,139.7719301,Vault Coffee
cafe,35.7018666,139.771385,ドールハウス
cafe,35.7017599,139.7713773,ぴなふぉあ
cafe,35.7017711,139.7713387,Cafe Chales
cafe,35.7239639,139.7782816,世茂利奈
cafe,35.6884103,139.7014624,ヴァーヴ コーヒー ロースターズ シンジュク ステーション
cafe,35.6755562,139.7665198,Centre The Bakery
cafe,35.7024319,139.7714353,カフェ トーキョーアイト
cafe,35.7020398,139.7713843,喫煙所
cafe,35.7046459,139.5771759,フリッパーズ 吉祥寺
cafe,35.7069667,139.6636122,mamatoko
cafe,35.6289475,139.6833515,目黒ひいらぎ
cafe,35.6903871,139.705307,追分だんご本舗 喫茶室
cafe,35.7234594,139.6734795,Jazz Cafe & Dinning Bar
cafe,35.6613513,139.7138723,菓匠 菊家
cafe,35.7014298,139.580705,Cafe Lumiere 吉祥寺
cafe,35.7020089,139.5766667,chai break
cafe,35.6753789,139.7103712,Ron Herman Sendagaya shop
cafe,35.6411474,139.6081401,Creperie Tirol
cafe,35.6960208,139.701447,Hona Cafe ホナカフェ 新宿シネシティ広場店
cafe,35.6742964,139.7677894,HIGASHIYA GINZA
cafe,35.6586841,139.7031793,Zen-Kashoin
cafe,35.6850088,139.7614803,The Palace Lounge
cafe,35.7021954,139.7672999,Cafe IMASA
cafe,35.7015097,139.7429921,不二家
cafe,35.6690129,139.7162917,Citron
cafe,35.6659987,139.7113402,Anniversaire café
cafe,35.6692347,139.7078548,Eddy's Ice Cream
cafe,35.6645878,139.7105948,Q-pot cafe
cafe,35.6723874,139.703509,Cookie Time
cafe,35.6468883,139.708344,MiLKs-ミルクス
cafe,35.6614338,139.7005688,ChugaiGraceCAFE
cafe,35.665628,139.7041543,GOOD TOWN DOUGHNUTS
cafe,35.6539044,139.7357778,DUMBO Doughnuts and Coffee
cafe,35.65874,139.7033214,MONARCH OF LONDON
cafe,35.7082777,139.778291,Cafe TAW
cafe,35.7229352,139.6889699,Naruse
cafe,35.6638133,139.8734611,珈琲館
cafe,35.7023072,139.773058,プリモプリマ
cafe,35.7014011,139.771916,僕と猫
cafe,35.7013907,139.7718751,プリンセスカフェ
cafe,35.6730524,139.4789798,コパ・デ・カフェ
cafe,35.7893308,139.2574489,青梅ゲストハウス 青龍kibako
cafe,35.7062032,139.7811717,中屋洋菓子店
cafe,35.7064928,139.7813635,Le Cafe
cafe,35.7064591,139.78146,えぐち
cafe,35.7057425,139.781278,ロッキー
cafe,35.7056173,139.7776835,カフェドペルシュ
cafe,35.5514143,139.7302073,Cafe Plaza Romage
cafe,35.7013477,139.7718322,Afilia Chronicle
cafe,35.7013259,139.7718644,Cat Cafe Mocha
cafe,35.6643794,139.8727738,ほっとハート
cafe,35.6993473,139.769426,Shinobazu
cafe,35.6995235,139.7694196,エンジェルドロップス
cafe,35.6993122,139.7695705,珈琲 庵
cafe,35.6683919,139.7119992,Soup+
cafe,35.6675555,139.7058054,J.S. Burger café
cafe,35.6668824,139.705977,On Japan café
cafe,35.6667562,139.7068241,Cinnamon's
cafe,35.6662532,139.7049423,ヨダカ
cafe,35.6674922,139.7059287,Very berry soup
cafe,35.6661419,139.704573,Good Town Doughnuts and coffee
cafe,35.7239873,139.6827293,ドトールコーヒーショップ
cafe,35.6694468,139.7059462,Café Crepe
cafe,35.6684802,139.7065265,Burn side st café
cafe,35.6660966,139.7087267,Bubó
cafe,35.6681083,139.7066899,Bakery café 426
cafe,35.670242,139.7065502,Santa Monica crepes
cafe,35.660912,139.7024854,ココロゴトcafe
cafe,35.6654052,139.703899,Micasadeco & cafe
cafe,35.6629843,139.7026453,Cat street café
cafe,35.6904971,139.7048095,カフェアリや
cafe,35.686468,139.7400799,壱番館
cafe,35.6380246,139.508374,Starbucks
cafe,35.6740522,139.6134384,CAFE STYLE RICO!
cafe,35.7079058,139.7722956,インターネットカフェmonopoly
cafe,35.7084813,139.7680637,飛鳥
cafe,35.6571481,139.5387442,Le petit boneur
cafe,35.6674665,139.5621195,micro-café
cafe,35.7185326,139.8091343,言問団子
cafe,35.6655545,139.7589801,新橋珈琲店 S.P.I.D Group
cafe,35.5507766,139.788261,egg Ellen to bites
cafe,35.65586,139.5277907,かえで
cafe,35.6557704,139.5275015,Den
cafe,35.7065831,139.6842288,ITSUKI Coffee Roastery
cafe,35.587414,139.735089,UCC cafe plaza
cafe,35.6726916,139.4828073,Café de croissant
cafe,35.7102275,139.7760225,喫茶マドンナ
cafe,35.7312231,139.5723356,関町珈琲店
cafe,35.6452215,139.5564771,Cafe kitchen 加菜
cafe,35.7240717,139.7787993,CATTLEYA
cafe,35.7357595,139.8827244,Cafe&Bar YOU&I
cafe,35.7227255,139.7795442,やまとじ
cafe,35.7278792,139.7121969,コメダ 珈琲
cafe,35.7120738,139.7828648,稲荷町珈琲
cafe,33.1086609,139.7886725,八丈島ジャージーカフェ
cafe,35.7014473,139.8227942,Sedan
cafe,35.7003947,139.8029571,芸術の家
cafe,35.6655032,139.7097833,DeLongi
cafe,35.6632097,139.7102796,Blenz Coffee
cafe,35.6721859,139.7254444,TULLY'S COFFEE
cafe,35.6607869,139.7073526,Colabo Cafe
cafe,35.6608621,139.7074699,Tee-Tee
cafe,35.6603658,139.7068289,LiQumu
cafe,35.7376785,139.7029451,YO-KO
cafe,35.7505524,139.7092876,Lobby
cafe,35.6283161,139.6940237,神乃珈琲
cafe,35.7613551,139.7212583,梅の木
cafe,35.7040458,139.7809853,ベースキャンプ
cafe,35.7054219,139.5725047,LIGHT UP COFFEE
cafe,35.7049589,139.573448,Blackwell Coffee
cafe,35.6985652,139.57894,ブルースカイコーヒー
cafe,35.7118462,139.7684312,PAULISTA
cafe,35.7026728,139.7528447,CAFE PIVERT
cafe,35.7220455,139.7804314,うさぎさん
cafe,35.7233923,139.7781609,花家
cafe,35.6895453,139.7144068,Apartment Coffee
cafe,35.6997969,139.4470307,コメダ珈琲店
cafe,35.7091815,139.7755645,まんがランド
cafe,35.6438997,139.5348101,ウィスタリア
cafe,35.6987241,139.7844835,foredor
cafe,35.7019753,139.7851618,Meme meal
cafe,35.6759341,139.7771944,めいぷる
cafe,35.7269347,139.7115626,いけふくろうカフェ
cafe,35.6993204,139.7846049,珈琲 葦
cafe,35.697507,139.7867212,コメダ珈琲店
cafe,35.6941616,139.7466569,Segafredo
cafe,35.6976954,139.7860801,インターネットコミックカフェ
cafe,35.6517812,139.5458458,サンマローカフェ
cafe,35.6635953,139.733534,Suzu
cafe,35.7020309,139.7706638,みけねこカフェ
cafe,35.7001876,139.7719882,FLYING SCOTSMAN
cafe,35.7006175,139.7720514,COLLABO CAFE HONPO
cafe,35.6975075,139.7839565,Cafe 梅の木
cafe,35.697635,139.7837915,Cafe de Leo
cafe,35.698032,139.7839719,CAFE BY PREGO
cafe,35.7013744,139.7846877,喫茶はっぱ
cafe,35.7013891,139.7844829,Little Japan Cafe
cafe,35.7015568,139.7844755,Café Estação
cafe,35.7003046,139.7848212,ファイン
cafe,35.6567776,139.7356451,Mancy's Tokyo
cafe,35.6715864,139.7086042,AnyWhere Door
cafe,35.6708347,139.7054019,Sanrio
cafe,35.7276068,139.7689663,ルノアール
cafe,35.7083392,139.7754908,リラックス24
cafe,35.678632,139.7626199,エシレメゾンデュブール
cafe,35.6627439,139.7096045,ピエールエルメパリ
cafe,35.7031291,139.7379364,ジェラテリアテオブロマ
cafe,35.6664997,139.6918441,ミュゼドゥショコラテオブロマ
cafe,35.6762888,139.7619345,サダハルアオキ
cafe,35.6711917,139.7638039,銀座ぶどうの木
cafe,35.6994826,139.7637499,Pronto
cafe,35.6964454,139.7614424,Cafe HINATA-YA
cafe,35.6958725,139.7612308,旅のすみか
cafe,35.7085679,139.7742717,Cafe Niki
cafe,35.7086381,139.770412,moroccan
cafe,35.7082929,139.7720093,インターネットカフェ ピエロ
cafe,35.7232552,139.7786456,ドクターカフェ
cafe,35.7075296,139.7755578,タリーズコーヒー
cafe,35.7018291,139.7713939,AIN SOPH AUR
cafe,35.701842,139.7714024,Saint Universe
cafe,35.7018341,139.7713877,Fairy Garden
cafe,35.6732289,139.7706896,舘田珈琲
cafe,35.6752362,139.7769868,Pronto
cafe,35.6749012,139.7767769,コロラド
cafe,35.6747634,139.7746787,Vino daily stand
cafe,35.6718769,139.7694746,SWAN CAFE
cafe,35.7112859,139.7750784,喫茶室クラウン
cafe,35.7111901,139.775252,ギャラン
cafe,35.7112244,139.775425,まんがランド
cafe,35.7113137,139.7754224,椿屋珈琲店
cafe,35.657233,139.5307009,つむぎ
cafe,35.6465586,139.7116994,麻布珈琲
cafe,35.7078577,139.7759995,ルノアール
cafe,35.6583005,139.5306569,Cafe Midipile
cafe,35.70834,139.7758611,めるせです
cafe,35.6989678,139.7261911,Usa カフェ
cafe,35.6058527,139.7338009,MOS Cafe
cafe,35.6965159,139.7599346,avocafe
cafe,35.7023927,139.7704858,青海珈琲
cafe,35.7138041,139.8000813,浅草茶房
cafe,35.7137904,139.8001356,セリーヌ
cafe,35.6948121,139.7940637,毛糸玉のある家
cafe,35.699585,139.7630386,メディアカフェポパイ
cafe,35.6816402,139.7020116,ルノアール
cafe,35.7347019,139.6387945,kuutamo
cafe,35.644798,139.7224663,Day & Night
cafe,35.6484298,139.7100144,essencecafé
cafe,35.6573777,139.7356319,むさしの森珈琲
cafe,35.6214339,139.7309226,スターバックス
cafe,35.6213369,139.7312347,カフェ&ホール アワーズ
cafe,35.693622,139.7664919,ジャーマン
cafe,35.7523861,139.6385989,miyama
cafe,35.6691161,139.7079648,Bio Okiyan cafe
cafe,35.6658726,139.7095473,Cafe Valmuer
cafe,35.6714896,139.7048367,スマイルジャンキー
cafe,35.6654978,139.7024368,Binowa Cafe
cafe,35.6711374,139.7090259,Cafe 1930 The Lace Center
cafe,35.6716537,139.7092777,パンとエスプレッソ
cafe,35.7013994,139.771859,ふれあいハリネズミ CHEESE
cafe,35.7179394,139.7657379,ゆうcafe
cafe,35.7168763,139.7668216,珈琲館
cafe,35.6988835,139.7826126,ヤマゴヤ
cafe,35.7012566,139.7720521,GIRL'S CAFE☆TOKYO
cafe,35.7250378,139.7773172,Heart
cafe,35.7041488,139.5791615,コメダ珈琲店
cafe,35.6498457,139.789377,Pittmasters
cafe,35.6639746,139.7838488,タリーズコーヒー
cafe,35.7025924,139.7725581,あきば女子寮
cafe,35.7005235,139.7700336,橙幻郷
cafe,35.7023523,139.7713263,漫画喫茶 世界樹
cafe,35.7023482,139.7713601,Black Cat Cafe & Store
cafe,35.7263853,139.7181371,Jugar Cafe
cafe,35.6694015,139.4921852,コフィア　エクスリビリス　ケトル
cafe,35.6717901,139.7545644,Pronto
cafe,35.7082608,139.7743639,ダンケ
cafe,35.7020584,139.7703798,もふもふバニー
cafe,35.7088285,139.7739175,Nest Cafe
cafe,35.7089741,139.7742362,80's Waffle
cafe,35.7067341,139.7753118,ガルミッシュ
cafe,35.705296,139.7700405,Holo-Holo Hookah
cafe,35.6724174,139.5443893,Green Front Cafe
cafe,35.6521351,139.5445917,New Yorker’s cafe
cafe,35.6037308,139.6970715,GRAIN COFFEE ROASTER
cafe,35.7594261,139.4663047,ビッグエコー
cafe,35.703464,139.7705628,はいどあんどしーく
cafe,35.7069753,139.7734221,DEAN & DELUCA
cafe,35.6675984,139.7156544,ドトールコーヒーショップ
cafe,35.7094996,139.774182,出会いカフェKIRARI
cafe,35.7612432,139.4661413,カラオケBanBan
cafe,35.7049617,139.794202,Leaves Coffee
cafe,35.7604565,139.4669049,ゆーもあ
cafe,35.6488418,139.668127,PORTLAND CAFE and MARKET
cafe,35.6442051,139.6709914,CHAT NOIR
cafe,35.7580005,139.4678496,カラオケアミティー
cafe,35.6530097,139.6652532,Hi Monsieur
cafe,35.6427839,139.6727384,affetto
cafe,35.6428972,139.6727916,*LUPOPO*
cafe,35.6437442,139.6727584,blus cafe
cafe,35.6999491,139.7694002,アキバ絶対領域
cafe,35.6712443,139.7355185,上島珈琲店
cafe,35.6457886,139.8261089,コメダ珈琲店
cafe,35.6618494,139.6600453,鯛cafe
cafe,35.66952,139.6164738,ANTENDO
cafe,35.6702438,139.7341725,メモリー赤坂
cafe,35.7036396,139.7409669,gootara
cafe,35.7095377,139.760085,SHIRUCAFE
cafe,35.6663339,139.6414098,コロラド
cafe,35.6871706,139.7811116,Guchi Coffee
cafe,35.6919847,139.7820733,obi
cafe,35.6826036,139.7813935,Streamer Coffee Company
cafe,35.6546699,139.6478477,らったった
cafe,35.6540133,139.6470883,Petit plum
cafe,35.6528953,139.6469689,L'Anguille
cafe,35.6528831,139.6470184,HOLIC
cafe,35.6520597,139.64673,とどろき
cafe,35.6514352,139.6463106,辣上帝
