latitude,longitude,name
35.6584874,139.6156789,世田谷区立 船橋西保育園
35.7178425,139.8155992,杉の子学園
35.6679489,139.6670574,育成幼稚園
35.631485,139.6043227,砧幼稚園
35.6528778,139.6732753,世田谷区立 多聞幼稚園
35.6480631,139.638496,愛珠幼稚園
35.6766055,139.6526125,レストナック幼稚園
35.738995,139.6548148,練馬和光保育園
35.6583339,139.643725,赤堤幼稚園
35.6500711,139.70733,恵比寿保育園
35.6995497,139.5858781,武蔵野市立南保育園
35.6829906,139.613465,高井戸保育園
35.6118698,139.4868213,第五保育園
35.6947739,139.4624377,千春保育園
35.6549447,139.6585457,代田保育園
35.6498825,139.7302886,本村幼稚園
35.6509478,139.7305699,本村保育園
35.555689,139.426761,すずらん保育園
35.5563361,139.4250522,すみれ保育園
35.5625003,139.4241805,境川幼稚園
35.7092387,139.6452844,さゆり保育園
35.620159,139.687331,目黒サレジオ幼稚園
35.6140048,139.6290232,二子幼稚園
35.5322929,139.4541592,こうりん保育園
35.7029603,139.6289083,阿佐ヶ谷南保育園
35.663584,139.5953183,佼成学園幼稚園
35.6970011,139.5997783,ひととき保育宮前
35.7127032,139.704368,ももちゃんナーサリー
35.6123257,139.7437011,品川区立城南幼稚園
35.7211304,139.5819336,練馬区立 関町保育園
35.605861,139.7069717,文教大学付属幼稚園
35.6435747,139.6944027,枝光学園幼稚園
35.648133,139.6853767,ひがしやま幼稚園
35.6449376,139.6858246,おひさま保育園
35.6677975,139.5722791,東台保育園
35.6767886,139.4543097,都立 多摩療育園
35.6427759,139.4985955,コマクサ幼稚園
35.6705836,139.4573057,府中保育園分園
35.5595392,139.4288382,きそ幼稚園
35.6438481,139.7334534,ゆらりん 白金保育園
35.7146046,139.6838943,中井保育園
35.6996772,139.5934951,松庵保育園
35.7536943,139.7108567,あいあい保育園
35.69095,139.448265,あいわ保育園
35.727723,139.430377,あおば保育園
35.725251,139.393741,あおば第二保育園
35.725819,139.819261,あおやぎ保育園
35.7755666,139.7140858,あかいとり幼稚園
35.6926372,139.5649508,あかね保育園
35.733663,139.285389,あきる野こどもの家
35.694036,139.557061,あけぼの保育園
35.714176,139.670384,あけぼの保育園
35.5983574,139.7300334,あけぼの幼稚園
35.662063,139.369523,あさひがおか保育園
35.7736658,139.6484596,あさひが丘保育園
35.711787,139.675051,あさひ保育園
35.708541,139.819178,あさひ幼稚園
35.75645,139.710407,あすなろ保育園
35.7337659,139.8636538,あすなろ幼稚園
35.754111,139.497258,あそか保育園
35.709458,139.823733,あづま幼稚園
35.7666386,139.8322377,あやせ保育園
35.7556166,139.8341237,あやめ幼稚園
35.756358,139.407988,あゆみ保育園
35.666452,139.417102,あらい保育園
35.7863386,139.8425097,いずみ幼稚園
35.549224,139.721637,いずも保育園
35.764118,139.789122,いづみ保育園
35.639268,139.68172,いづみ幼稚園
35.7564516,139.7335266,いなり幼稚園
35.8118115,139.7617253,いりや第一保育園
35.8113973,139.7635293,いりや第二保育園
35.7697899,139.8000543,うめだ「子供の家」
35.7668642,139.7140052,うめのき幼稚園
35.722651,139.846702,うらら保育園
35.620408,139.617115,えいあんじ幼稚園
35.670868,139.386466,おおくぼ保育園
35.712538,139.709409,おおや幼稚園
35.631983,139.365191,おさひめ幼稚園
35.640156,139.675859,おともだち保育園
35.55914,139.690195,おひさま保育園
35.70818,139.824733,おむらい保育園
35.728697,139.7460385,かごまち保育園
35.7513946,139.6886527,かごめ幼稚園
35.66009,139.348747,かしわ幼稚園
35.7934636,139.2729355,かすみ保育園
35.79174,139.290692,かすみ台第二保育園
35.660907,139.777322,かちどき西保育園
35.748117,139.709352,かないくぼ保育園
35.7322813,139.6280925,かみさぎ幼稚園
35.7721531,139.3066776,かやの実保育園
35.6441647,139.6919143,桑の実中目黒保育園
35.6833875,139.29679,からまつ保育園
35.696768,139.882672,かんしち幼稚園
35.587521,139.478295,ききょう保育園
35.761551,139.366714,きし保育園
35.7463188,139.8653406,きぼう保育園
35.779025,139.520617,きよせ幼稚園
35.7928561,139.6546136,きよみ幼稚園
35.69657,139.818985,きんし保育園
35.676735,139.64811,くまの幼稚園
35.696841,139.527481,くりのみ保育園
35.745501,139.495676,くるみ保育園
35.701922,139.5288843,けやき保育園
35.736586,139.530117,けやき保育園
35.717613,139.4345954,けやき台さくら保育園
35.707396,139.553367,けやき幼稚園
35.6224793,139.6945027,げっこうはらこども園
35.604348,139.333778,町田市立こうさぎ保育園
35.6291302,139.7484803,こうなん保育園
35.790722,139.66441,こうま幼稚園
35.532496,139.454131,こうりん保育園
35.698756,139.468291,こくぶんじ保育園 (Kokubunji Nursery School)
35.611292,139.424243,こころ保育園
35.785861,139.664771,こじか保育園
35.712683,139.891976,こじか幼稚園
35.7780264,139.7937627,こだま幼稚園
35.697923,139.503066,こどものくに幼稚園
35.6184073,139.3936203,このみ保育園
35.776228,139.869337,こばとの森保育園
35.52272,139.455215,こばと保育園
35.709975,139.42035,こばと幼稚園
35.624042,139.458156,こばと第一保育園
35.5408673,139.4523398,こひつじ保育園
35.7293103,139.8392002,こひつじ保育園
35.577026,139.690249,こひつじ幼稚園
35.617908,139.630447,こひつじ幼稚園
35.725614,139.494871,こぶし保育園
35.752196,139.558809,こまどり保育園
35.6891533,139.6728,こまどり幼稚園
35.722505,139.54145,こみね幼稚園
35.7484909,139.68406,キッズガーデンひまわり
35.7455875,139.6963153,さいわい保育園
35.761778,139.523506,さいわい保育園
35.775808,139.702351,さかうえ保育園
35.781172,139.863726,さかえ保育園
35.776187,139.307108,さかえ幼稚園
35.739079,139.27339,さくらぎ保育園
35.7638394,139.7335317,さくらだ幼稚園
35.6739811,139.5115449,さくらんぼ保育園
35.711449,139.49751,さくら保育園
35.761754,139.679687,さくら保育園
35.765993,139.303497,さくら保育園
35.6319948,139.6465695,さくら幼稚園
35.76248,139.846284,さくわ学園
35.718094,139.749822,さしがや保育園
35.673421,139.29264,さつき保育園
35.7681421,139.7681066,さつき保育園
35.565881,139.43777,さふらん幼稚園
35.7411292,139.8570743,さゆり保育園
35.724983,139.761932,しおみ保育園
35.748084,139.507202,しおん乳児保育園
35.7547959,139.5665944,しもほうや保育園
35.761966,139.312219,しらうめ保育園
35.7887832,139.6371159,しらさぎ保育園
35.7307771,139.8138743,しらひげ保育園
35.706145,139.509732,しんあい保育園
35.758056,139.537227,しんかわ保育園
35.6807527,139.3866723,しんさかした保育園
35.713004,139.453847,しんまち保育園
35.7636851,139.7201009,じゅうじょうなかはら幼稚園
35.731194,139.197982,すぎの子保育園
35.648043,139.620974,すこやか園
35.765033,139.746292,すずらん幼稚園
35.7320278,139.8230656,すみだ保育園
35.749696,139.54931,すみよし保育園
35.556382,139.425105,すみれ保育園
35.68704,139.684995,すみれ幼稚園
35.706396,139.575143,すみれ幼稚園
35.731414,139.291805,すもも木幼稚園
35.7879714,139.7763832,i-保育園
35.612958,139.390717,せいがの森保育園
35.696563,139.516898,せいしん幼稚園
35.5699235,139.4347504,たかね保育園
35.575436,139.432993,たかね第二保育園
35.720697,139.462985,たかのだい幼稚園
35.727973,139.426155,たかのみち保育園
35.660925,139.411992,たかはた保育園
35.653093,139.412631,たかはた台保育園
35.697648,139.604141,たから幼稚園
35.7485402,139.7373857,たきさん幼稚園
35.746557,139.50723,たきやま保育園
35.707069,139.834315,たちばな保育園
35.763254,139.683464,たつの子保育園
35.717179,139.851175,たつみ保育園
35.627704,139.294809,たてまち幼稚園
35.649452,139.304696,たんぽぽ保育園
35.6692777,139.7946334,ちどり幼稚園
35.721451,139.62686,ちどり幼稚園
35.756778,139.526895,ちゅうおう保育園
35.663313,139.401881,つくしんぼ保育園
35.758473,139.559781,つくし幼稚園 (Tsukushi Kindergarten)
35.666851,139.786932,つくだ保育園
35.65168,139.575895,つつじがおか幼稚園
35.684321,139.818957,つばめ幼稚園
35.727346,139.883838,つぼみ保育園
35.744889,139.451957,つぼみ保育園
35.6905913,139.4297787,つぼみ幼稚園
35.747721,139.4041,つみき保育園
35.585326,139.474129,つるかわ保育園
35.639295,139.650722,つるまき幼稚園
35.7622393,139.6839636,ときわ台保育園
35.762309,139.679992,ときわ幼稚園
35.766505,139.753458,としま幼稚園(休園中)
35.813944,139.767705,とねり伊藤幼稚園
35.669837,139.8416126,ともしび保育園
35.7610698,139.7432883,北区立豊島つぼみ保育園
35.658314,139.384605,とよだ保育園
35.614133,139.742743,どんぐり保育園
35.721594,139.762293,どんぐり保育園
35.715643,139.479373,なおび幼稚園
35.737198,139.564364,なかまち保育園
35.555697,139.743246,なかよし保育園
35.6850067,139.4423747,なかよし保育園
35.657784,139.317611,なかよし幼稚園
35.6469379,139.8804379,なぎさ幼稚園
35.7411229,139.8815295,なでしこ保育園
35.683489,139.834066,なでしこ幼稚園
35.757644,139.69813,なでしこ幼稚園
35.626983,139.358664,なみのり保育園
35.6333348,139.7773331,にじのはし幼稚園
35.791972,139.690907,にりんそう保育園
35.693118,139.489123,ぬくい南幼稚園
35.530386,139.464908,ねむの木保育園
35.655016,139.682025,のぞみ保育園
35.717834,139.341746,のぞみ保育園
35.714564,139.637859,のぞみ幼稚園
35.767118,139.81412,のぞみ幼稚園
35.752695,139.502758,はくさん保育園
35.733893,139.560309,はこべら保育園
35.75625,139.513729,はちまん保育園
35.790198,139.78476,はなぞの幼稚園
35.609354,139.49635,はなぶさ幼稚園
35.780751,139.670937,ひいらぎ保育園
35.566853,139.415217,ひかりの子保育園
35.704449,139.444348,ひかり保育園
35.75562,139.879337,ひかり学園
35.7169078,139.6766139,ひかり幼稚園
35.708149,139.687466,ひがしなかの幼稚園
35.727532,139.560171,ひがしふしみ保育園
35.647934,139.685413,ひがしやま幼稚園
35.746336,139.560559,ひがし保育園
35.720069,139.821344,ひきふね保育園
35.73326,139.767487,ひぐらし保育園
35.729756,139.62386,ひこばえ幼稚園
35.5938992,139.7192314,みどりの丘保育園
35.706284,139.528147,ひなぎく保育園
35.705374,139.811457,ひなどり幼稚園
35.726969,139.151457,ひのはら保育園
35.747141,139.540394,ひばりが丘保育園
35.74153,139.531756,ひばりケ丘幼稚園
35.748168,139.529839,ひばり保育園
35.642187,139.797793,ひばり幼稚園
35.745922,139.67716,ひまわりベビールーム小竹向原
35.745149,139.866505,ひまわり保育園
35.613632,139.697941,ひまわり幼稚園
35.733641,139.493843,ひめゆり保育園
35.622687,139.687914,ひもんや保育園
35.610269,139.487572,ひらお保育園
35.649787,139.376661,ひらやま保育園
35.759561,139.746293,ふくし保育園
35.784585,139.705684,ふくろ幼稚園
35.721089,139.565421,ふじの実保育園
35.63174,139.627863,ふじみ保育園
35.739973,139.452152,ふじみ保育園
35.764278,139.6729938,ふたば幼稚園
35.791281,139.791399,ふちえ幼稚園
35.6272843,139.6995465,ふどう幼稚園
35.589163,139.680916,ぶどうの木幼稚園
35.729587,139.553171,ほうやちょう保育園
35.7469983,139.5714966,ほうや幼稚園
35.719638,139.319108,ほうりんじ幼稚園
35.733679,139.823316,ほがらか保育園
35.70851,139.676745,ほぜんじ幼稚園
35.700622,139.676357,ほりこし幼稚園
35.712088,139.47954,ほんだ保育園
35.74789,139.515063,まえさわ保育園
35.771585,139.661383,まきば幼稚園
35.675017,139.801126,まこと保育園
35.7121648,139.6787406,まこと幼稚園
35.747563,139.747099,まごころ会保育園
35.758524,139.38163,まどか保育園
35.723984,139.853452,まどか幼稚園
35.690265,139.813985,まなべ幼稚園
35.6573411,139.3324218,まや保育園
35.765276,139.486398,まりあ幼稚園
35.781778,139.653439,まるやま幼稚園
35.694014,139.82204,まんとみ幼稚園
35.639286,139.283087,みころも幼稚園
35.6613692,139.4247892,みさわ保育園
35.724675,139.675133,みずのとう幼稚園
35.775521,139.353326,みずほひじり保育園
35.698035,139.532202,みそら幼稚園
35.6671493,139.5759307,みたかつくしんぼ保育園
35.714836,139.44432,みたから幼稚園
35.694231,139.574449,みたか小鳥の森保育園
35.5861172,139.6808329,みたけ幼稚園
35.666489,139.786765,みちてる保育園
35.642852,139.727632,みつばち保育園
35.678936,139.883784,みづえ保育園
35.609438,139.674304,みどりがおか幼稚園
35.741392,139.564337,みどりが丘保谷幼稚園
35.545114,139.704972,みどり保育園
35.742086,139.535839,みどり保育園
35.642296,139.735326,みなと保育園
35.650574,139.751324,みなと幼稚園
35.652648,139.387244,みなみだいら保育園
35.681346,139.660442,みなみ保育園
35.7423307,139.5253817,わらべみなみ保育園
35.745228,139.700269,みなみ保育園
35.631232,139.323861,みなみ野保育園
35.686268,139.879173,みなもと幼稚園
35.744951,139.712102,みのり保育園
35.741561,139.670161,みのり幼稚園
35.702116,139.448793,みふじ幼稚園
35.7730845,139.6328169,みやこ幼稚園
35.680374,139.664331,みやしろ幼稚園
35.7152,139.560977,みやま幼稚園
35.6483877,139.5625585,みゆき保育園
35.641712,139.662888,みょうじょう幼稚園
35.762773,139.338078,むさしの保育園
33.116545,139.803149,むつみ保育園
33.124412,139.803248,むつみ第二保育園
35.715392,139.455625,むらさき幼稚園
35.7415515,139.3966618,むらやま幼稚園
35.615992,139.657778,めぐみ保育園
35.576776,139.708525,めぐみ幼稚園
35.63949,139.698552,めぐみ幼稚園
35.698865,139.397853,めぐみ幼稚園
35.629568,139.414437,めぐみ第一保育園
35.611513,139.364275,めぐみ第二保育園
35.641925,139.314056,めじろ保育園
35.687654,139.816235,めばえ保育園
35.694395,139.481401,もとまち保育園
35.688932,139.839899,もみじ幼稚園
35.7375728,139.7410864,もみじ幼稚園
35.6303095,139.4820316,もみの木保育園
35.6246451,139.475432,もみの木若葉台保育園
35.722116,139.551005,やぎさわ保育園
35.726763,139.840953,やくし幼稚園
35.700811,139.455764,やなぎ保育園
35.714286,139.650692,やはた幼稚園
35.645677,139.431657,やまと保育園
35.756862,139.7059988,やまと保育園
35.6179911,139.397928,やまと第一保育園
35.771923,139.804093,やよい保育園
35.692345,139.678385,やよい幼稚園
35.5681202,139.4545538,ゆうき山保育園
35.6383253,139.6054716,ゆかり文化幼稚園
35.727364,139.483344,ゆたか保育園
35.7159035,139.3510848,ゆりかご保育園
35.621653,139.448296,ゆりのき保育園
35.769252,139.638718,ゆりの木保育園
35.541503,139.705778,よいこの保育園
35.799932,139.212117,よしの保育園
35.720249,139.298138,よつぎ第一保育園
35.723281,139.468901,よつぎ第三保育園
35.7276289,139.2789755,よつぎ第二保育園
35.7206521,139.3474201,よつぎ第四保育園
35.7044773,139.6920802,よろい保育園
35.619013,139.414354,りすのき保育園
35.728698,139.515258,りんどう幼稚園
35.6813221,139.8002154,れいがん寺幼稚園
35.722502,139.443042,れんげ砂川保育園
35.740057,139.474928,れんげ萩山保育園
35.649127,139.635529,わかくさ保育園
35.753144,139.695769,わかたけ会わかたけ保育園
35.69584,139.499622,わかたけ保育園
35.79411,139.665687,わかたけ第二保育園
35.614864,139.6311356,わかな保育園
35.5798841,139.6741981,わかば保育園
35.693987,139.844231,わかば保育園
35.768109,139.485287,わくわく保育園
35.6764563,139.5078307,わらしこ保育園
35.686171,139.360495,わらべうつき台保育園
35.684643,139.349552,わらべ保育園
35.628713,139.673332,アゼィリア幼稚園
35.668656,139.802486,アゼリヤ保育園
35.618354,139.703913,アライアンス幼稚園
35.702428,139.706854,エイビイシイ保育園
35.6089189,139.7411492,エトワール幼稚園
35.767308,139.642968,エンゼル保育園
35.6567873,139.5521486,オリンピア保育園
35.573019,139.435465,カナリヤ幼稚園
35.734055,139.375548,キンデルガルテン松中幼稚園
35.7308418,139.5502231,クリスト・ロア幼稚園
35.60943,139.297226,クローバー保育園
35.63549,139.662582,コドモの園幼稚園
35.587719,139.715329,サムエル幼稚園
35.773863,139.67852,サンシティ聖母幼稚園
35.642324,139.727632,サンタ・セシリア幼稚園
35.671153,139.686607,シオン幼稚園
35.654451,139.30389,セント・ベルインターナショナル幼稚園
35.774645,139.832896,チェリー保育園
35.772479,139.828868,チェリー幼稚園
35.742499,139.394157,テマリ第二保育園
35.767698,139.706796,テーオーシー保育園
35.734428,139.783708,ドン・ボスコ保育園
35.609104,139.653139,ナオミ保育園
35.721986,139.821289,ナースリー保育園
35.6498335,139.4432221,バオバブ保育園ちいさな家
35.7410572,139.6572107,ビクター幼稚園
35.712842,139.662913,ピオニイ保育園
35.615209,139.435214,ピオニイ第二保育園
35.658959,139.638945,ファチマのマリア幼稚園
35.6826322,139.5640903,フィッシャー幼稚園
35.672282,139.296501,フェロー保育園
35.619548,139.675248,ベテル幼稚園
35.657264,139.627696,マダレナ・カノッサ幼稚園
35.772253,139.685019,マハヤナ第二保育園
35.690506,139.44971,ママの森幼稚園
35.721736,139.890476,マヤ幼稚園
35.663345,139.560895,マリアの園幼稚園
35.6816,139.860175,マリヤ保育園
35.650847,139.534149,マルガリタ幼稚園
35.7695,139.577974,マーガレット保育園
35.742055,139.407989,ムサシ保育園
35.581463,139.433465,ユニケ保育園
35.685075,139.894894,ルンビニー保育園
35.758786,139.879643,ルンビニー幼稚園
35.725347,139.884449,ルーテル保育園
35.754662,139.314108,ルーテル羽村幼稚園
35.641182,139.552287,レオ保育園
35.738067,139.87931,レジナ幼稚園
35.676652,139.652387,レストンナク幼稚園
35.725285,139.640109,ワカバ幼稚園 (Wakaba Kindergarten)
35.690456,139.8779669,一之江保育園
35.689685,139.884228,一之江第一保育園
35.604606,139.729661,一本橋保育園
35.669063,139.411547,万願寺保育園
35.651044,139.674303,三宿さくら幼稚園
35.652766,139.672859,三宿保育園
35.6418481,139.5829219,三島保育園
35.620158,139.651167,三島幼稚園
35.75909,139.757181,三星保育園
35.67762,139.488512,三本木保育所
35.688319,139.72377,三栄町保育園
35.735538,139.780125,三河島保育園
35.7370313,139.7789072,三河島幼稚園
35.806376,139.194035,三田保育園
35.761782,139.698852,三祉会平和保育園
35.705985,139.786987,三筋保育園
35.640573,139.66972,三軒茶屋保育園
35.641878,139.668137,三軒茶屋幼稚園
35.579773,139.493656,三輪保育園
35.684204,139.57906,三鷹のぞみ幼稚園
35.69298,139.546674,三鷹みずほ幼稚園
35.666484,139.5692,三鷹中原幼稚園
35.6929426,139.5418993,三鷹双葉幼稚園
35.691315,139.584503,三鷹台保育園
35.691731,139.586337,三鷹台幼稚園
35.6918768,139.5732296,三鷹小鳩幼稚園
35.6967103,139.5596533,三鷹幼稚園
35.68412,139.547729,三鷹木の実保育園
35.690009,139.565033,三鷹杉の子幼稚園
35.708113,139.367188,上ノ原保育園
35.7049477,139.6811202,上ノ原幼稚園
35.732105,139.8742534,上一色幼稚園
35.74448,139.754043,上中里幼稚園
35.7186933,139.6012977,上井草保育園
35.6695538,139.6201269,上北沢保育園
35.7620537,139.7179409,上十条保育園
35.760255,139.718628,上十条南保育園
35.668653,139.682913,上原保育園
35.731501,139.443709,上宿保育園
35.752396,139.75657,荒川区立上尾久保育園
35.6560633,139.5460285,上布田保育園
35.718679,139.853202,上平井保育園
35.722068,139.856035,上平井幼稚園
35.7469644,139.776813,上智厚生館保育園
35.7618963,139.6737495,上板橋保育園
35.6772429,139.6157983,上水保育園
35.712088,139.48915,上水南保育園
35.592524,139.700692,上池台保育園
35.634906,139.630391,上用賀保育園
35.643156,139.692219,上目黒保育園
35.656651,139.527205,上石原保育園
35.7298535,139.5881108,上石神井保育園
35.7351125,139.5792442,上石神井幼稚園
35.731616,139.584613,上石神井第三保育園
35.725617,139.592168,上石神井第二保育園
35.720695,139.391714,上砂保育園
35.653958,139.597032,上祖師谷南保育園
35.706042,139.616885,区立上荻保育園
35.698702,139.553923,上連雀保育園
35.714651,139.783736,上野保育園
35.609382,139.638391,上野毛幼稚園
35.7815036,139.2633139,上長渕保育園
35.640795,139.657777,上馬保育園
35.6824844,139.5995695,上高井戸保育園
35.564389,139.687584,下丸子保育園
35.719396,139.62461,下井草保育園
35.6596218,139.6653938,下北沢保育園
35.653096,139.548147,下布田保育園
35.733755,139.603528,下石神井第三保育園
35.720509,139.686244,下落合みどり幼稚園
35.71737,139.700993,新宿せいが保育園
35.759888,139.502924,下里しおん保育園
35.751972,139.496175,下里幼稚園
35.6369269,139.6826918,下馬保育園
35.635935,139.675331,下馬鳩ぽっぽ保育園
35.674512,139.631473,下高井戸保育園
35.674401,139.630167,下高井戸子供園
35.761614,139.65505,不二幼稚園
35.626464,139.699468,不動保育園
35.647683,139.656971,世田谷保育園
35.6255452,139.6453587,世田谷聖母幼稚園
35.6935229,139.7914432,両国幼稚園
35.727814,139.694521,並木幼稚園
35.714676,139.683966,中井保育園
35.622104,139.712606,中原保育園
35.669067,139.566061,中原保育園
35.771919,139.677103,中台幼稚園
35.707156,139.7623109,中央会堂幼稚園
35.692425,139.559061,中央保育園
35.6798135,139.4736969,中央保育所
35.573554,139.71783,中央八丁目保育園
35.6719487,139.7790339,中央幼稚園
35.773923,139.807231,中央本町保育園
35.632158,139.688386,中央町保育園
35.78406,139.801426,中島根保育園
35.710486,139.835732,中川保育園
35.718735,139.830454,中川保育園
35.684262,139.674885,本町幼稚園
35.612383,139.708413,中延保育園
35.734756,139.640414,中新井幼稚園
35.74862,139.799845,中条幼稚園
35.755005,139.69838,中板橋保育園
35.77897,139.535754,中清戸保育園
35.722951,139.619666,中瀬保育園
35.721895,139.61775,中瀬幼稚園
35.615436,139.642529,中町保育園
35.634102,139.694552,中町保育園
35.698957,139.734574,中町保育園
35.616353,139.63928,中町幼稚園
35.636046,139.701163,中目黒保育園
35.634519,139.706329,中目黒幼稚園
35.718085,139.424016,中砂保育園
35.719036,139.682161,新宿こだま保育園
35.717954,139.693938,中落合第二保育園
35.7676446,139.7910071,中部ひまわり保育園
35.740703,139.753099,中里保育園
35.7691675,139.6099217,中里幼稚園
35.695817,139.681801,中野たから幼稚園
35.71723,139.650997,オンビーノスクエア野方
35.6667,139.324832,中野保育園
35.692151,139.676524,中野保育園
35.718258,139.659024,中野小鳩幼稚園
35.746593,139.848118,中青戸保育園
35.568639,139.684723,丸子ベビー保育園
35.5665,139.690334,丸子幼稚園
35.725785,139.64983,丸山保育園
35.739445,139.464512,丸山幼稚園
35.581969,139.695415,久が原保育園
35.574471,139.697249,久が原幼稚園
35.718594,139.741545,久堅保育園
35.688454,139.601502,久我山保育園
35.688815,139.596669,久我山幼稚園
35.687844,139.607641,久我山東保育園
35.689015,139.784321,久松幼稚園
35.7632248,139.5381044,久留米みのり保育園
35.755861,139.520673,久留米神明幼稚園
35.747,139.479455,久米川保育園
35.762748,139.471149,久米川幼稚園
35.690595,139.7410684,九段幼稚園
35.772193,139.50523,乳児保育園
35.696487,139.832454,亀戸保育園
35.701014,139.826428,亀戸幼稚園
35.698459,139.838954,亀戸浅間保育園
35.696293,139.836704,亀戸第二保育園
35.702597,139.826622,亀戸第四保育園
35.7641769,139.8506936,亀有保育園
35.698486,139.799459,亀沢保育園
35.603939,139.710413,亀田幼稚園
35.684766,139.832983,亀高保育園
35.685349,139.834066,亀高第二保育園
35.682101,139.872952,二ノ江幼稚園
35.724151,139.85459,二上保育園
35.805182,139.216227,二俣尾保育園
35.613964,139.628975,二子幼稚園
35.6491671,139.560588,二葉くすのき保育園
35.6068899,139.7253636,二葉つぼみ保育園
35.607901,139.7265349,二葉保育園
35.681542,139.723687,二葉南元保育園
35.6069468,139.7254312,二葉幼稚園
35.764661,139.315607,五ノ神幼稚園
35.6219444,139.7293805,五反田保育園
35.761452,139.810704,五反野保育園
35.763896,139.813064,五反野幼稚園
35.728831,139.224728,五日市わかば保育園
35.730887,139.223811,五日市保育園
35.69062,139.578643,トキ保育園
35.7270035,139.6197443,井草保育園
35.713285,139.598668,井草幼稚園
35.728478,139.612833,井荻聖母幼稚園
35.710979,139.598585,井萩保育園
35.727898,139.747738,京北幼稚園
35.6681298,139.7708468,京橋朝海幼稚園
35.656485,139.532815,京王調布幼稚園
35.684571,139.784821,人形町保育園
35.739399,139.783153,仁風保育園
35.685686,139.888228,今井保育園
35.5625,139.694417,今泉保育園
35.660929,139.587865,仙川かおる幼稚園
35.661124,139.586782,仙川保育園
35.681958,139.695967,代々木保育園
35.650767,139.705023,代官山保育園
35.655099,139.658471,代田保育園
35.6562231,139.6606836,代田幼稚園
35.7230924,139.8025651,仰願寺幼稚園
35.553447,139.7151734,仲六郷保育園
35.7564797,139.7078723,仲宿保育園
35.586163,139.697831,仲池上保育園
35.674616,139.321971,仲田保育園
35.699566,139.675857,仲町保育園
35.733613,139.479261,仲町保育園
35.797752,139.782982,伊興保育園
35.798816,139.790047,伊興前沼保育園
35.792392,139.789315,伊興大境保育園
35.796864,139.788204,伊興幼稚園
35.60069,139.717551,伊藤保育園
35.5982317,139.7166668,伊藤幼稚園
35.73054,139.865061,会野保育園
35.711843,139.687161,伸びる会幼稚園
35.707038,139.685272,住吉保育園
35.657038,139.460849,住吉保育所
35.790836,139.773706,佐藤幼稚園
35.6994336,139.7160851,余丁町幼稚園
35.690595,139.665053,佼成保育園
35.663707,139.595142,佼成学園幼稚園
35.6626989,139.5366954,保恵学園保育所
35.662706,139.536676,保恵学園幼稚園
35.796781,139.80773,保木間保育園
35.795476,139.799537,保木間幼稚園
35.6744307,139.6639809,保育園うさぎとかめ
35.756559,139.66505,信愛学舎みどり幼稚園
35.6827792,139.7202414,信濃町保育園
35.673292,139.686662,元代々木保育園
35.670615,139.289363,元八王子保育園
35.662311,139.28378,元八王子幼稚園
35.682738,139.807598,元加賀幼稚園
35.753758,139.790289,元宿こども園第１園舎
35.68053,139.267226,元木保育園
35.77547,139.519339,元町乳児保育園
35.756424,139.791456,元宿こども園第２園舎
35.759114,139.624664,光が丘あかね幼稚園
35.762864,139.632219,光が丘さくら幼稚園
35.756059,139.629719,光が丘むらさき幼稚園
35.7615278,139.6314504,光が丘第七保育園
35.755864,139.626886,光が丘第三保育園
35.763058,139.633052,光が丘第九保育園
35.755336,139.624831,光が丘第五保育園
35.759086,139.627108,光が丘第八保育園
35.757975,139.623386,光が丘第六保育園
35.7638637,139.6327814,光が丘第十一保育園
35.758058,139.630858,光が丘第十保育園
35.756559,139.625997,光が丘第四保育園
35.706013,139.805318,光の園保育学校
35.7017352,139.6590541,光塩女子学院幼稚園
35.525442,139.4610914,光幼稚園
35.712263,139.842398,光徳保育園
35.5683357,139.7154183,光明幼稚園
35.661617,139.320694,光明第一保育園
35.705195,139.309165,光明第七保育園
35.682731,139.3096072,光明第三保育園
35.690174,139.495011,光明第二保育園
35.6406587,139.3161155,光明第五保育園
35.613902,139.368664,光明第八保育園
35.723304,139.234616,光明第六保育園
35.663033,139.302834,光明第四保育園
35.7361758,139.7548173,光明院幼稚園
35.551557,139.725192,光輪幼稚園
35.578831,139.721913,入新井保育園
35.622966,139.743548,八ツ山保育園
35.762785,139.801149,八千代幼稚園
35.669018,139.837733,八幡保育園
35.668954,139.484763,八幡保育所
35.668485,139.61453,八幡山保育園
35.66318,139.618946,八幡山幼稚園
35.716229,139.594557,八幡幼稚園
35.712732,139.691105,八幡神社愛育園
35.720902,139.826371,八広保育園
35.7266197,139.8254395,八広幼稚園
35.596525,139.749743,八潮わかば幼稚園
35.599413,139.751243,八潮中央保育園
35.60469,139.753159,八潮北保育園
35.59658,139.752049,八潮南保育園
35.612328,139.745715,八潮幼稚園
35.601663,139.751271,八潮西保育園
35.695975,139.333942,八王子すみれ幼稚園
35.657729,139.323666,八王子ふたば保育園
35.659063,139.350219,八王子共励保育園
35.650702,139.327416,八王子実践幼稚園
35.677809,139.291529,八王子桑の実幼稚園
35.6718489,139.3028891,八王子隣保館
35.615687,139.668055,八雲保育園
35.655846,139.55323,八雲台保育園
35.790421,139.838089,六木保育園
35.5439601,139.7144679,六郷保育園
35.544642,139.712971,六郷幼稚園
35.694279,139.282224,共励第二保育園
35.712208,139.820205,共愛館保育園
35.7507539,139.841135,共栄幼稚園
35.723874,139.805429,共生保育園
35.643378,139.650944,円光院幼稚園
35.699226,139.401658,冨士見保育園
35.677458,139.684662,初台保育園
35.744529,139.517868,前沢幼稚園
35.771336,139.690686,前野幼稚園
35.7424613,139.6755413,りっこう幼稚園
35.753218,139.32494,加美平保育園
35.756005,139.715045,加賀保育園
35.793808,139.760707,加賀保育園
35.7604715,139.7437281,労働者クラブ保育園
35.660351,139.778294,勝どき保育園
34.774728,139.361633,北ノ山保育園 (Kitanoyama Nursery School)
35.756842,139.868727,北住吉幼稚園
35.796198,139.811063,北保木間保育園
35.6993462,139.434372,北保育園
35.687007,139.488873,北保育所
35.618772,139.743993,北品川保育園
35.7629292,139.6002051,北大泉保育園
35.76289,139.603444,北大泉幼稚園
35.74065,139.887781,北小岩保育園
35.700318,139.72988,北山伏保育園
35.6904283,139.4550513,北山保育所
35.785946,139.699046,北幼稚園
35.698483,139.690244,北新宿第一保育園
35.702788,139.6893,北新宿子ども家庭支援センター
35.7677736,139.6533024,北町カトリック幼稚園
35.712396,139.577587,北町保育園
35.767419,139.655661,北町保育園
35.7640494,139.6678452,北町第二保育園
35.682349,139.821734,北砂保育園
35.6713792,139.8628936,北葛西保育園
35.7492041,139.7732819,北豊島幼稚園
35.650036,139.354052,北野保育園
35.757175,139.869088,北野保育園
35.771252,139.6583,北野保育園
35.78338,139.278888,千ケ瀬第二保育園
35.658784,139.310028,千人保育園
35.6929335,139.7683897,千代田幼稚園
35.744732,139.809566,千住あずま保育園
35.754786,139.793539,千住保育園
35.754508,139.798511,千住寿幼稚園
35.716117,139.556061,千川保育園
35.735035,139.68641,千早子どもの家保育園
35.732646,139.693826,千早第一保育園
35.71317,139.460486,千春第二保育園
35.601356,139.686998,千束保育園
35.7193495,139.7944206,千束幼稚園
35.659208,139.608475,千歳保育園
35.724787,139.743155,千石保育園
35.724898,139.738184,千石西保育園
35.677514,139.706994,千駄ケ谷保育園
35.6752998,139.7071008,千駄谷幼稚園
35.5741545,139.6910124,千鳥保育園
35.7503546,139.8327388,千鶴幼稚園
35.7761038,139.8754252,半田保育園
35.606522,139.720939,南ゆたか保育園
35.7903724,139.8123672,南保木間保育園
35.613521,139.689109,南保育園
35.664763,139.61703,南八幡山保育園
35.5451042,139.7254758,南六郷保育園
35.658399,139.469153,南分倍保育園
35.765837,139.688019,南前野保育園
35.736983,139.80454,南千住さくら保育園
35.731761,139.790846,南千住第三幼稚園
35.734511,139.80704,南千住第二幼稚園
35.664229,139.361023,南原台保育園
35.684318,139.665275,南台保育園
35.743472,139.459457,南台幼稚園
35.740261,139.829509,南堀切保育園
35.60579,139.3801726,南多摩幼稚園
35.5917924,139.7343895,南大井保育園
35.729037,139.729906,南大塚保育園
35.609806,139.378801,南大沢保育園
35.751224,139.57328,南大泉保育園
35.633795,139.619114,南大蔵保育園
35.7336236,139.8598677,南奥戸保育園
35.599467,139.680027,南奥沢保育園
35.720931,139.885699,南小岩保育園
35.6572925,139.7306935,南山幼稚園
35.703597,139.841009,南平井保育園
35.7604151,139.8608173,南新宿保育園
35.70307,139.863425,南松島保育園
35.64271,139.627918,南桜丘保育園
35.724952,139.663246,南江古田保育園
35.723926,139.712658,南池袋保育園
35.687565,139.565505,南浦東保育園
35.6889811,139.5639353,南浦西保育園
33.071606,139.796403,南海保育園
35.738866,139.613249,南田中保育園
35.738894,139.617638,南田中第二保育園
35.750843,139.843007,南白鳥保育園
35.670046,139.830456,南砂町保育園
35.674628,139.828539,南砂第一保育園
35.696658,139.899143,南篠崎保育園
35.694547,139.910503,南篠崎第三保育園
35.691908,139.909615,南篠崎第二保育園
35.78681,139.824507,南花畑保育園
35.6428784,139.8712392,南葛西保育園
35.560417,139.699666,南蒲幼稚園
35.738028,139.433237,南街保育園
35.6510165,139.7246292,南部坂幼稚園
35.744677,139.876143,南鎌倉保育園
35.724703,139.684883,南長崎幼稚園
35.730007,139.681799,南長崎第一保育園
35.723731,139.689188,南長崎第二保育園
35.667435,139.814068,南陽幼稚園
35.671154,139.725659,南青山保育園
35.5865954,139.7101334,南馬込保育園
35.592996,139.714635,南馬込第二保育園
35.64774,139.724132,南麻布保育園
35.712236,139.83076,厚生館保育園
35.7513512,139.7788848,原保育園
35.6708477,139.7138908,原宿幼稚園
35.61791,139.695191,原町保育園
35.5416492,139.4519546,原町田幼稚園
35.780613,139.686325,友和保育園
35.772131,139.289054,友田保育園
35.694621,139.616362,双百合幼稚園
35.652933,139.687219,双葉の園保育園
35.6468226,139.5368724,双葉保育園
35.748843,139.835563,双葉保育園
35.6758447,139.7968107,双葉幼稚園
35.666684,139.800097,古石場保育園
35.8175552,139.1531601,古里保育園
35.6299891,139.7771649,台場保育園
35.6213413,139.7431244,台場幼稚園
35.7237841,139.7684039,台東初音幼稚園
35.723261,139.785736,台東幼稚園
35.7234135,139.7649874,台桜幼稚園
35.716594,139.725768,同仁美登里幼稚園
35.730038,139.793123,同善会保育園
35.788167,139.676964,同援みどり保育園
35.717483,139.756627,向丘保育園
35.7425574,139.6847431,向原保育園
35.725615,139.542006,向台保育園
35.770114,139.680714,向台保育園
35.737783,139.642164,向山保育園
35.727124,139.827649,向島文化幼稚園
35.680325,139.4253256,向陽保育園
35.6380148,139.4860743,向陽台保育園
35.664091,139.386438,吹上保育園
35.695644,139.450959,和光保育園
35.644099,139.635195,和光幼稚園
35.732984,139.865339,和光幼稚園
35.599212,139.457213,和光鶴川幼稚園
35.769253,139.700463,和敬保育園
35.635766,139.579784,和泉保育園
35.679346,139.649943,和泉保育園
35.739447,139.549866,和泉保育園
35.672513,139.652138,和泉町幼稚園
35.695066,139.662303,和田保育園
35.622743,139.73766,品川教会附属幼稚園
35.713368,139.588641,善福寺保育園
35.605243,139.649029,善隣幼稚園
35.724652,139.871894,善隣館保育園
35.634322,139.597255,喜多見保育園
35.637932,139.588783,喜多見幼稚園
35.71942,139.489733,喜平保育園
35.737734,139.830537,四つ木保育園
35.722673,139.60875,四宮保育園
35.6892471,139.739988,四番町保育園
35.689124,139.716242,四谷保育園
35.6648141,139.4427391,府中市立 四谷保育所
35.684264,139.727714,四谷新生幼稚園
35.6812357,139.7152389,四谷第六幼稚園
35.711337,139.43921,国分寺けやき幼稚園
35.699756,139.480429,国分寺Ｊキッズステーション
35.635349,139.588005,国本幼稚園
35.681701,139.430323,国立あゆみ保育園
35.695894,139.435155,国立ふたば幼稚園
35.701088,139.435155,国立保育園
35.682562,139.440988,国立冨士見台幼稚園
35.694228,139.440349,国立学園附属かたばみ幼稚園
35.674425,139.448821,国立文化幼稚園
35.698672,139.443932,国立音楽大学附属幼稚園
35.6826401,139.5938838,國學院大學附属幼稚園
35.7633968,139.6136232,土支田保育園
35.713531,139.459513,坂の上幼稚園
35.787362,139.681797,坂下三丁目保育園
35.725039,139.787236,坂本保育園
35.7473993,139.7559966,城北ひまわり幼稚園
35.767423,139.80662,城北幼稚園
35.783585,139.684047,城山みどり幼稚園
35.641791,139.492791,城山保育園
35.775586,139.687464,城山幼稚園
35.6698362,139.8352128,城東保育園
35.675541,139.678246,城西幼稚園
35.686595,139.652998,堀ノ内保育園
35.68354,139.651082,堀ノ内子供園
35.6924,139.654053,堀ノ内東保育園
35.7401598,139.8281499,堀切保育園
35.723,139.363688,堀向保育園
35.648827,139.869759,堀江保育園
35.6462768,139.8813027,堀江第三保育園
35.6458287,139.8808681,堀江第二保育園
35.7552103,139.7456046,堀船南保育園
35.6558992,139.607835,塚戸幼稚園
35.660935,139.808624,塩崎保育園
35.66349,139.800792,塩浜保育園
35.709978,139.539229,境保育園
35.69773,139.541979,境南第２保育園
35.5625168,139.4239055,境川幼稚園
35.710145,139.538812,境幼稚園
35.7323175,139.2421845,増戸保育園
35.696375,139.803431,墨田みどり保育園
35.7231893,139.8118206,墨田幼稚園
35.610819,139.369636,多摩なかよし幼稚園
35.753555,139.46765,多摩みどり幼稚園
35.702697,139.388575,多摩保育園
35.577582,139.678889,多摩堤保育園
35.762827,139.31458,多摩学院幼稚園
35.6761398,139.3759475,多摩小ばと保育園
35.5563946,139.7023814,多摩川保育園
35.640404,139.563452,多摩川保育園
35.724526,139.291888,多摩川幼稚園
35.694144,139.417434,多摩幼稚園
35.654868,139.308778,多摩文化保育園
35.653072,139.673275,多聞幼稚園
35.6996902,139.7057164,大久保幼稚園
35.708344,139.706076,大久保第一保育園
35.699845,139.706854,大久保第二保育園
35.746245,139.23392,大久野保育園
35.597274,139.725245,大井うさぎ幼稚園
35.600912,139.735189,大井保育園
35.602301,139.734105,大井倉田保育園
35.667542,139.661415,大原保育園
35.6619865,139.6960939,大向保育園
35.714536,139.642109,大和保育園
35.716314,139.651053,大和幼稚園
35.711953,139.651053,大和東保育園
35.7445018,139.4443285,大和東保育園
35.731259,139.743933,大和郷幼稚園
35.724593,139.725629,大塚保育園
35.6833277,139.6362304,大宮保育園
35.6947623,139.6011901,大宮前保育園
35.7448113,139.6943652,大山西町保育園
35.610132,139.680387,大岡山保育園
35.603355,139.685248,大岡山幼稚園
35.686433,139.838343,大島保育園
35.687183,139.835927,大島幼稚園
35.690349,139.830788,大島新生幼稚園
35.692765,139.833177,大島第三保育園
35.687071,139.830233,大島第二保育園
35.68621,139.832011,大島第五保育園
35.687266,139.838954,大島第四保育園
35.6215527,139.7266019,品川区立 大崎保育園
35.711178,139.733768,共立大日坂幼稚園
35.705321,139.876339,大杉保育園
35.706738,139.875867,大杉神明幼稚園
35.784945,139.654161,大東文化大学附属青桐幼稚園
35.581303,139.716913,大森みのり幼稚園
35.5915803,139.7236801,大森ルーテル幼稚園
35.5771709,139.738922,大森一丁目保育園
35.5674977,139.747284,大森保育園
35.582442,139.73119,大森北保育園
35.5810861,139.7353235,大森北六丁目保育園
35.5763397,139.7274479,大森西保育園
35.572776,139.722107,大森西第二保育園
35.5898223,139.7291451,大森駅前保育園
35.749411,139.241753,大正保育園
35.7206781,139.7884401,大正幼稚園
35.739335,139.492593,大沼保育園
35.748031,139.588779,大泉保育園
35.771889,139.586723,大泉双葉幼稚園
35.7726551,139.5928064,大泉学園保育園
35.764306,139.5915329,大泉学園幼稚園
35.761473,139.581251,大泉小鳩幼稚園
35.75028,139.588862,大泉幼稚園
35.755835,139.585418,大泉文華幼稚園
35.596495,139.711385,大田こまどり幼稚園
35.748145,139.704852,大礼保育園
35.6327365,139.6103139,大蔵ふたば保育園
35.588658,139.468046,大蔵保育園
35.640877,139.612309,大蔵保育園
35.725651,139.861062,大西保育園
35.747978,139.686909,大谷口保育園
35.7788262,139.8446997,大谷田第一保育園
35.780024,139.8442873,大谷田第二保育園
35.582664,139.694109,天使幼稚園
35.710814,139.626305,天沼保育園
35.6491,139.666026,太子堂保育園
35.754922,139.710546,太陽の子保育園
35.762328,139.319496,太陽の子保育園
35.785392,139.755263,太陽保育園
35.730179,139.869755,奥戸保育園
35.605216,139.675638,奥沢保育園
35.606271,139.671471,奥沢幼稚園
35.6030392,139.6578695,奥沢西保育園
35.568877,139.7144632,女塚保育園
35.773883,139.347799,如意輪幼稚園
35.7509806,139.5788616,妙福寺保育園
35.760869,139.812009,子ひばり保育園
35.69431,139.409963,子供の国若草幼稚園
35.748257,139.755292,子供の家愛育保育園
35.681822,139.80582,子供の村保育園
35.652869,139.335693,子安保育園
35.661258,139.378994,子育て支援ひよこハウス
35.646209,139.584533,子鹿幼稚園
35.6944844,139.5926271,学校法人アルウイン学園野のはな空のとり保育園
35.67499,139.856398,宇喜田保育園
35.667741,139.867064,宇喜田第二保育園
35.652406,139.730298,安藤記念教会附属幼稚園
35.660407,139.78321,宗教法人日本聖公会東京教区月島聖ルカ保育園
35.6999115,139.6789801,宝仙学園幼稚園
35.6264577,139.710637,宝保育園
35.742205,139.837619,宝保育園
35.742356,139.263946,宝光保育園
35.739753,139.550616,宝樹院幼稚園
35.678761,139.607058,宝陽幼稚園
35.651374,139.524789,宮の下保育園
35.694539,139.672802,宮の台保育園
35.636654,139.570368,宮前保育園
35.693232,139.614446,宮前保育園
35.703038,139.676579,宮園保育園
35.757506,139.753098,宮城保育園
35.649766,139.664859,家庭幼稚園
35.665098,139.685218,富ケ谷保育園
35.695346,139.711409,富久町保育園
35.760161,139.321357,富士みのり保育園
35.756245,139.321968,富士学院幼稚園
35.698759,139.614223,富士幼稚園
35.7188406,139.7983146,富士幼稚園
35.658401,139.539314,富士見保育園
35.7385949,139.6242786,富士見台こぶし保育園
35.6013264,139.7142773,富士見台保育園
35.69747,139.7464373,ふじみこども園
35.769393,139.731016,富士見幼稚園
35.761588,139.703435,富士見愛児園
35.5743784,139.7284114,富士見橋保育園
35.76666,139.315246,富士見第一保育園
35.762967,139.323996,富士見第二保育園
35.7217718,139.7737868,寛永寺幼稚園
35.72018,139.81254,寺島保育園
35.7069243,139.7898674,寿保育園
35.756059,139.640274,寿福寺第二幼稚園
35.621132,139.717578,専修幼稚園
35.594801,139.665556,小さき花の幼稚園
35.802086,139.80298,小倉幼稚園
35.75361,139.7604115,荒川区立 小台保育園
35.776339,139.862727,小合保育園
35.682183,139.832011,小名木川第二保育園
35.741094,139.891059,小岩みどり保育園
35.743372,139.888587,小岩保育園
35.732957,139.892448,小岩第一幼稚園
35.6656843,139.8615452,小島保育園
35.726474,139.458263,小川保育園
35.52836,139.476436,小川幼稚園
35.736779,139.458151,小川西保育園
35.713504,139.486094,小平あおば幼稚園
35.729308,139.491343,小平なみき幼稚園
35.741167,139.465706,小平にこにこ保育園
35.7245283,139.5027822,小平みどり幼稚園
35.726335,139.435793,小平姫百合幼稚園
35.721864,139.480345,小平学園幼稚園
35.732251,139.449347,小平神明幼稚園
35.7312955,139.514763,小平花小金井幼稚園
35.716171,139.492705,小平若竹幼稚園
35.7129005,139.7347822,小日向台町幼稚園
35.715513,139.862535,小松保育園
35.688377,139.850176,小松川めぐみ幼稚園
35.687933,139.848926,小松川第一保育園
35.696598,139.850426,小松川第二保育園
35.660789,139.50104,小柳保育所
35.779002,139.690713,小桜保育園
35.624101,139.59495,小梅保育園
35.597023,139.701108,小池保育園
35.687283,139.420185,小百合保育園
35.696283,139.444238,小百合幼稚園
27.101527,142.198581,小笠原村立父島保育園
35.67584,139.6413617,小羊幼稚園
35.6015736,139.7260117,品川翔英幼稚園
35.598517,139.440686,小野路保育園
35.702951,139.509954,小金井教会幼稚園
35.6050098,139.6870338,小鳩幼稚園
35.674124,139.662748,小鳩幼稚園
35.741842,139.769736,尾久幼稚園
35.7520916,139.7547891,尾久第二幼稚園
35.752341,139.783373,尾久隣保館保育園
35.5999919,139.6508748,尾山台ナザレン幼稚園
35.724051,139.3225839,屋城保育園
35.689786,139.552284,山中保育園
35.648091,139.316611,山田保育園
35.683096,139.692772,山谷幼稚園
34.787076,139.380176,岡田保育園
35.7847028,139.7202451,岩淵保育園
35.665404,139.679802,岸辺幼稚園
35.785004,139.796148,島根あおば保育園
35.77545,139.795399,島根保育園
35.584026,139.732245,島田保育園
35.7459342,139.7417716,島田第一幼稚園
35.573693,139.677335,嶺町幼稚園
35.679711,139.816818,川南幼稚園
35.7215226,139.7084163,川村幼稚園
35.735619,139.733822,巣鴨第一保育園
35.690372,139.650776,左内坂幼稚園
34.6848085,139.4074095,差木地保育園
35.6398942,139.2612181,みどり幼児園
35.69947,139.728705,市谷幼稚園
35.6579612,139.6209126,希望丘保育園
35.6088,139.700413,帝京にしき幼稚園
35.64215,139.419464,帝京大学附属幼稚園
35.758477,139.712462,帝京幼稚園
35.759393,139.692047,帝都幼稚園
35.652599,139.643556,常徳幼稚園
35.682733,139.621695,常盤ケ丘幼稚園
35.759893,139.687298,常盤台めぐみ幼稚園
35.6879741,139.7704706,常盤幼稚園
35.68322,139.676093,幡ケ谷保育園
35.677874,139.671608,幡ケ谷第三保育園
35.679763,139.675941,幡ケ谷第二保育園
35.6681424,139.8026988,平久幼稚園
35.707652,139.840037,平井保育園
35.705319,139.835232,平井第二保育園
35.760114,139.661494,平和台保育園
35.618799,139.717439,平塚保育園
35.63849,139.692969,平塚幼稚園
35.644128,139.678942,平安幼稚園
35.7859216,139.8057757,平野保育園
35.654017,139.717466,広尾上宮保育園
35.649323,139.722355,広尾保育園
35.651795,139.712078,広尾幼稚園
35.67112,139.482458,府中めぐみ保育園
35.666481,139.460737,府中保育園
35.6678965,139.4928374,府中愛児園
35.727066,139.797512,康保会乳児保育園
35.724956,139.797873,康保会保育園
35.7855111,139.8677789,延命幼稚園
35.548087,139.750024,弁天橋保育園
35.7036523,139.7270962,弁天町保育園
35.7068578,139.7574077,弓町本郷幼稚園
35.767562,139.814231,弘道保育園
35.6866429,139.6669437,弥生保育園
35.748746,139.318969,弥生保育園
35.753116,139.694381,弥生保育園
35.740474,139.507008,弥生台幼稚園
35.636878,139.645,弦巻保育園
35.722927,139.745877,彰栄幼稚園
35.7219361,139.8074904,待乳保育園
35.706373,139.746906,後楽幼稚園
35.622286,139.7317333,御殿山幼稚園
33.8950363,139.5933257,御蔵島村保育園
35.771502,139.665077,徳丸幼稚園
35.709093,139.675356,徳育幼稚園
35.7110237,139.7897483,徳風幼稚園
35.61391,139.680832,志のぶ幼稚園
35.778446,139.677659,志村坂下保育園
35.7934466,139.6801352,志村橋保育園
35.64574,139.733659,志田町保育園
35.779614,139.735654,志茂保育園
35.783502,139.73046,志茂北保育園
35.556001,139.711609,志茂田保育園
35.706366,139.477234,恋ヶ窪保育園
35.64599,139.717439,恵比寿保育園
35.7014631,139.4882065,愛の園保育園
35.730119,139.68441,愛の家保育園
35.699615,139.42535,愛光あけぼの保育園
35.701893,139.420989,愛光保育園
35.663229,139.351663,愛光大和田保育園
35.75483,139.371686,愛光第二保育園
35.69231,139.396297,愛光第五保育園
35.772474,139.642829,愛和保育園
35.72312,139.693715,愛心幼稚園
35.699262,139.734435,愛日幼稚園
35.636686,139.731965,愛星保育園
35.718927,139.749044,愛星幼稚園
35.648043,139.638501,愛珠幼稚園
35.653545,139.726632,愛育幼稚園
35.7878515,139.8125701,愛隣保育園
35.72765,139.788096,愛隣団愛隣保育園
35.629851,139.650167,愛隣幼稚園
35.713122,139.756794,慈愛会保育園
35.62674,139.594422,慶元寺幼稚園
35.633739,139.588644,慶岸寺幼稚園
35.5859914,139.4746338,けいしょう幼稚園
35.6448238,139.602952,成城幼稚園
35.778001,139.626524,成増すみれ幼稚園
35.7794335,139.6298789,成増保育園
35.785916,139.635551,成増幼稚園
35.5483782,139.4723997,成瀬くりの家保育園
35.536219,139.467936,成瀬南野保育園
35.549663,139.478296,成瀬台幼稚園
35.689066,139.63375,成田保育園
35.6904432,139.6312439,成田西子供園
35.772337,139.725377,成立学園幼稚園
35.787666,139.636218,成美保育園
35.7109272,139.7144242,戸塚第一幼稚園
35.7121453,139.7054068,戸塚第二幼稚園
35.7043254,139.7017984,戸山幼稚園
35.704317,139.71177,戸山第一子ども園
35.702095,139.71227,戸山第二保育園
35.6151446,139.7213318,戸越幼稚園
35.643287,139.363385,打越保育園
35.7080611,139.6691646,打越保育園
35.6603245,139.5124214,押立保育園
35.658984,139.51315,押立第二保育園
35.707807,139.342246,拝島保育園
35.738705,139.851201,摩耶幼稚園
35.6413593,139.2821571,敬愛たかお保育園
35.616596,139.370886,敬愛フレンド保育園
35.647341,139.303612,敬愛保育園
35.760477,139.708435,敬隣保育園
35.718789,139.757904,文京女子大学付属文京幼稚園
35.623792,139.456517,文化女子大附属すみれ幼稚園
35.6055035,139.7066167,文教大学学園幼稚園
35.709681,139.823233,文花保育園
35.716286,139.666996,新井保育園
35.579387,139.714691,新井宿保育園
35.703629,139.891421,新堀おひさま保育園
35.557279,139.71622,新宿幼稚園
35.6942914,139.6914689,新宿成子坂愛育園
35.69804,139.709632,東新宿保健センター
35.69279,139.71091,新宿第二保育園
35.720235,139.853841,新小岩ちぐさ幼稚園
35.712374,139.858924,新小岩幼稚園
34.368422,139.25702,新島保育園 (Niijima Nursery School)
35.6752172,139.5701408,新川保育園
35.704983,139.699854,新栄保育園
35.647573,139.716439,新橋保育園
35.795388,139.663549,新河岸保育園
35.794471,139.66491,新河岸幼稚園
35.77206,139.743709,新田わかば保育園
35.6569543,139.8599465,新田保育園
35.6547102,139.8614736,新田第二保育園
35.626824,139.653528,新町保育園
35.7884136,139.3026202,新町保育園
35.7828408,139.3116337,新町東保育園
35.7817915,139.2952532,新町西保育園
35.674569,139.660526,方南隣保館保育園
35.6038635,139.7001812,旗の台保育園
35.72193,139.823427,日の丸保育園
35.7032541,139.6186647,日の丸幼稚園
35.740511,139.875088,日の出保育園
35.73769,139.254419,日の出幼稚園
35.776197,139.705045,日の基保育園
35.750953,139.809899,日ノ出町保育園
35.626213,139.646167,日体幼稚園
35.6351746,139.7117683,日出幼稚園
35.7014432,139.4524826,日吉保育園
35.7854316,139.2355701,日向和田保育園
35.730983,139.775125,日暮里幼稚園
35.691262,139.673052,日本ナザレン教団中野教会附属幼稚園
35.730117,139.642914,日本基督教団教団中村町教会平和保育園
35.6659236,139.6480447,日本女子体育大学体育学部附属みどり幼稚園
35.71551,139.719713,日本女子大附属豊明幼稚園
35.684745,139.781686,日本橋幼稚園
35.610189,139.725272,日本音楽学校付属幼稚園
35.6094371,139.7253627,日本音楽学校保育園
35.680006,139.388632,日野しらゆり幼稚園
35.671756,139.383327,日野ひかり幼稚園
35.660786,139.388438,日野ふたば幼稚園
35.6562594,139.4324758,日野わかくさ幼稚園
35.662899,139.382328,日野・多摩平幼稚園
35.680728,139.391187,日野保育園
35.666785,139.381077,日野台幼稚園
35.672396,139.406381,日野第二保育園
35.750199,139.65319,早宮保育園
35.705067,139.722241,早稲田南町保育園
35.7035708,139.723098,早稲田幼稚園
35.66032,139.6318901,早苗保育園
35.746367,139.700547,旭保育園
35.6029831,139.7086801,旭幼稚園
35.634546,139.669693,旭幼稚園
35.776751,139.626774,旭幼稚園
35.774279,139.625052,旭町保育園
35.766391,139.624803,旭町第二保育園
35.65816,139.881479,昇覚寺仲町保育園
35.7244168,139.7449811,明化幼稚園
35.7125283,139.7879849,明和学園幼稚園
35.582803,139.725023,明善幼稚園
35.694928,139.664525,明愛幼稚園
35.733864,139.533534,明成幼稚園
35.7897159,139.6977533,明日香幼稚園
35.694536,139.576032,明星台幼稚園
35.734873,139.837203,明昭幼稚園
35.741539,139.83037,明昭第二幼稚園
35.676044,139.782071,明正幼稚園
35.697814,139.565144,明泉幼稚園
35.715289,139.745072,明照幼稚園
35.783141,139.725877,明照幼稚園
35.6689214,139.776373,明石幼稚園
35.6666,139.776766,明石町保育園
35.685075,139.894894,明福寺ルンビニー学園幼稚園
35.70868,139.839093,明聖第一幼稚園
35.695158,139.895532,明聖第三幼稚園
35.6968358,139.8686783,明聖第二幼稚園
35.785113,139.713656,星美学園幼稚園
35.694255,139.433544,春光保育園
35.763007,139.808926,春光幼稚園
35.746338,139.637636,春日町保育園
35.7509963,139.6388264,春日町第三保育園
35.751893,139.646468,春日町第二保育園
35.6535339,139.6474448,春明保育園
35.682324,139.879145,春江保育園
35.699462,139.886672,春江第二保育園
35.6693616,139.5737269,春清学苑幼稚園
35.707732,139.678301,昭和保育園
35.6442384,139.6765821,昭和女子大学附属昭和幼稚園
35.709474,139.381465,昭和郷保育園
35.7095156,139.3813754,昭和郷第二保育園
35.710196,139.35405,昭島すみれ幼稚園
35.7084159,139.3794806,昭島幼稚園
35.656622,139.483236,是政つくしんぼ保育園
35.659816,139.489013,是政保育園
35.659657,139.784432,晴海保育園
35.6589493,139.7859402,晴海幼稚園
35.6802819,139.4792228,晴見保育園
35.697547,139.903143,暁幼稚園
35.6977506,139.7471524,暁星幼稚園
35.742973,139.479983,暁星幼稚園
35.7160069,139.8207763,曳舟幼稚園
35.759753,139.654162,最勝寺みのり保育園
35.678516,139.799321,月かげ幼稚園
35.663212,139.784599,月島保育園
35.664656,139.782849,月島幼稚園
35.6609748,139.7804462,月島第一幼稚園
35.6598561,139.7754627,月島第二幼稚園
35.679323,139.868035,月映保育園
35.6836123,139.7877892,有馬幼稚園
35.695063,139.506316,朋愛幼稚園
35.669205,139.518066,朝日保育所
35.753451,139.748154,木の実保育園
35.73054,139.826205,木ノ下保育園
35.745396,139.724323,木内鳩の家幼稚園
35.728707,139.841953,木根川保育園
33.083135,139.851175,末吉保育園
35.71633,139.6230427,本天沼保育園
35.70193,139.80543,本所白百合幼稚園
35.766895,139.78165,本木保育園
35.764312,139.784039,本木東保育園
35.651045,139.730354,本村保育園
35.736789,139.843091,本田保育園
35.697067,139.677551,本町保育園
35.664426,139.471292,本町保育所
35.661312,139.331943,本町幼稚園
35.5577358,139.4537105,本町田わかくさ保育園
35.681208,139.684218,本町第三保育園
35.682096,139.679524,本町第二保育園
35.56786,139.721663,本蒲田保育園
35.8036483,139.7880485,本行寺第二伊興幼稚園
35.690123,139.669524,本郷保育園
35.706457,139.756683,本郷保育園
35.727815,139.755127,本駒込保育園
35.7338814,139.7523649,本駒込保育園
35.7331203,139.7556111,本駒込幼稚園
35.727593,139.747516,本駒込西保育園
35.717958,139.815595,杉の子学園保育所
35.805475,139.807008,杉の子幼稚園
35.663437,139.884423,杉の子育英幼稚園
35.7216943,139.3363624,杉ノ子第三保育園
35.729249,139.329635,杉ノ子第二保育園
35.709203,139.645276,杉並さゆり保育園
35.684011,139.632722,杉並の家保育園
35.7229078,139.6138609,杉並ひまわり幼稚園
35.691177,139.641027,杉並ゆりかご保育園
35.6942818,139.6389105,杉並保育園
35.704926,139.659052,杉並央文幼稚園
35.702676,139.642498,杉並幼稚園
35.696872,139.658942,杉並教会幼稚園
35.690288,139.623973,杉並日の出幼稚園
35.6474295,139.4221871,杉野幼稚園
35.7619645,139.3743277,村山いずみ幼稚園
35.753081,139.389879,村山中藤保育園
35.7741775,139.303772,村野小鳩幼稚園
35.681729,139.451432,束保育園
35.704569,139.829261,東あずま保育園
35.629639,139.672066,東が丘保育園
35.698434,139.8816213,東一の江幼稚園
35.71454,139.781514,東上野乳児保育園
35.7539131,139.8617026,東中川保育園
35.611299,139.711218,東中延保育園
35.7045611,139.6848415,陽だまりの丘保育園
35.6279672,139.7233012,東五反田保育園
35.706762,139.740101,東五軒町保育園
35.743943,139.407961,東京多摩幼稚園
35.7134642,139.7441974,東京学芸大教育学部附属竹早園舎幼稚園
35.7546187,139.7208901,東京家政大学附属みどりケ丘幼稚園
35.544531,139.709333,東京幼稚園
35.721597,139.820539,東京愛育苑さゆり保育園
35.766181,139.7399097,東京成徳短期大学附属幼稚園
35.6965412,139.6621737,東京文化幼稚園
35.707344,139.692077,東京母子愛育会保育園
35.763671,139.706935,東京自由保育園
35.698235,139.745739,東京都助産婦会館八千代保育園
35.750089,139.698325,東京都同胞援護会大山保育園
35.790004,139.815535,東保木間保育園
35.706563,139.590919,東保育園
35.756717,139.318718,東保育園
35.775534,139.841284,東保育園
35.673204,139.5033999,府中市立 東保育所
35.7481041,139.8377731,東光幼稚園
35.552613,139.718914,東六郷保育園
35.765032,139.728599,東十条保育園
35.7666838,139.732758,東十条東保育園
35.7777748,139.8777275,東半田保育園
35.766896,139.83884,東和保育園
35.6161161,139.7474567,東品川保育園
35.751481,139.835063,東堀切保育園
35.603273,139.741382,東大井保育園
35.761331,139.448874,東大典保育園
35.7559597,139.5908493,東大泉保育園
35.74242,139.577224,東大泉第二保育園
35.727402,139.892365,東小岩保育園
35.709959,139.867979,東小松川保育園
35.6992039,139.8757451,東小松川幼稚園
35.741954,139.771875,東尾久保育園
35.6466362,139.6920872,東山保育園
35.635656,139.651556,東弦巻保育園
35.701845,139.710242,東戸山幼稚園
35.612272,139.717801,東戸越保育園
35.752505,139.680521,東新保育園
35.727845,139.861728,東新小岩保育園
35.733149,139.775792,東日暮里保育園
35.729039,139.781264,東日暮里幼稚園
35.774331,139.501785,東星学園幼稚園
35.760693,139.484676,東村山しらぎく幼稚園
35.754221,139.448679,東村山むさしの幼稚園
35.774466,139.339272,東松原保育園
35.784255,139.812425,東栗原保育園
35.7755578,139.8698523,東江幼稚園
35.733505,139.7178429,東池袋第一保育園
35.732481,139.722824,東池袋第二保育園
35.6610079,139.7343317,東洋英和幼稚園
35.742258,139.760931,東田端保育園
35.6851,139.841704,東砂保育園
35.67835,139.839177,東砂幼稚園
35.682128,139.840788,東砂第三保育園
35.684433,139.842954,東砂第二保育園
35.674073,139.838482,東砂第四保育園
35.7388615,139.3348355,東福保育園
35.724082,139.304665,東秋留保育園
35.700893,139.426767,東立川幼稚園
35.7369,139.851146,東立石保育園
35.696648,139.9159275,東篠崎保育園
35.698379,139.915753,東篠崎第二保育園
35.556614,139.748135,東糀谷保育園
35.768118,139.833896,東綾瀬保育園
35.658382,139.882702,東葛西保育園
35.560889,139.726358,東蒲田保育園
35.6565707,139.6133101,東覚院千歳幼稚園
35.773673,139.834507,東谷中保育園
35.658263,139.58281,東部保育園
35.765896,139.829896,東部保育園
35.669184,139.813707,東陽保育園
35.644937,139.800237,東雲保育園
35.643326,139.799237,東雲第二保育園
35.705485,139.797986,東駒形保育園
35.72298,139.672523,松が丘保育園
35.7185743,139.7862693,松が谷保育園
35.692316,139.646193,松ノ木保育園
35.637906,139.638612,松丘幼稚園
35.732833,139.374909,松中保育園
35.662903,139.650471,松原保育園
35.719083,139.34444,松原保育園
35.66657,139.653693,松原北保育園
35.707764,139.863868,松島保育園
35.699564,139.593197,松庵保育園
35.713765,139.876672,松本おひさま保育園
35.714904,139.880866,松本幼稚園
35.662154,139.688802,松村幼稚園
35.6926721,139.8784523,松江ひかり幼稚園
35.701904,139.866091,松江保育園
35.707098,139.866479,松江幼稚園
35.702821,139.869701,松江第二保育園
35.664069,139.623362,松沢保育園
35.667874,139.625918,松沢幼稚園
35.660766,139.693079,松涛幼稚園
35.634322,139.520846,松葉保育園
35.753672,139.704769,松葉保育園
35.6629506,139.6757359,松蔭幼稚園
35.742645,139.69927,板橋わかくさ幼稚園
35.759366,139.705018,板橋保育園
35.776362,139.643273,板橋区立赤塚六丁目保育園
35.763449,139.700963,板橋富士見幼稚園
35.751173,139.71449,板橋明星幼稚園
35.641047,139.739298,枝光会附属幼稚園
35.657266,139.689746,枝光会駒場幼稚園
35.64349,139.694524,枝光学園幼稚園
35.659463,139.808624,枝川幼稚園
35.724501,139.410712,柏保育園
35.700483,139.689383,柏木幼稚園
35.639238,139.559481,染地幼稚園
35.703263,139.817484,柳島幼稚園
35.717533,139.544145,柳橋保育園
35.713706,139.750433,柳町幼稚園
35.753926,139.874226,柴又学園
35.692449,139.407102,柴崎保育園
35.624825,139.673137,柿ノ木坂幼稚園
35.707781,139.4291,栄保育園
35.704035,139.545618,栄光乃園幼稚園
35.6476607,139.3828495,栄光保育園
35.73945,139.671161,栄町保育園
35.749979,139.742293,栄町保育園
35.751672,139.701991,栄町保育園
35.704613,139.355662,栗ノ沢幼稚園
35.781255,139.788788,栗原保育園
35.7763278,139.8166122,栗島幼稚園
35.7235329,139.7787527,根岸幼稚園
35.7186408,139.7632027,根津幼稚園
35.703399,139.661386,桃が丘保育園
35.7142894,139.6149598,桃井幼稚園
35.698205,139.665385,桃園幼稚園
35.7773705,139.711037,桐ケ丘保育園
35.775308,139.709684,桐ケ丘南保育園
35.659013,139.585199,桐朋幼稚園
35.579303,139.70833,桐里保育園
35.66952,139.881368,桑川保育園
35.658312,139.326666,桑都保育園
35.642988,139.621974,桜ケ丘保育園
35.654378,139.701717,桜丘保育園
35.643238,139.624946,桜丘幼稚園
35.642905,139.635334,桜保育園
35.589128,139.403023,桜台保育園
35.7443651,139.6572659,桜台保育園
35.746088,139.663217,桜台第二保育園
35.7079291,139.5325934,桜堤保育園
35.673711,139.778154,桜川保育園
35.763477,139.73571,桜田保育園
35.765727,139.734488,桜田北保育園
35.58349,139.405662,桜美林幼稚園
35.751257,139.747015,桜輪幼稚園
35.660015,139.653194,梅丘保育園
35.773311,139.801232,梅島幼稚園
35.7410329,139.8453078,梅田保育園
35.762535,139.794899,梅田保育園
35.730818,139.817595,梅若保育園
35.793183,139.223588,梅郷保育園
35.649735,139.508707,梨花幼稚園
35.685932,139.80296,森下保育園
35.669927,139.539897,椎の実こどもの家
35.727147,139.689271,椎名町ひまわり保育園
35.7051252,139.8174259,横川さくら保育園
35.6674728,139.3084844,横川保育園
35.667727,139.306695,横川幼稚園
35.70218,139.810791,横川橋保育園
35.705091,139.592058,樫の実幼稚園
35.744063,139.733767,樫の木幼稚園
35.699733,139.668552,橋場保育園
35.725457,139.807096,橋場保育園
35.772811,139.785122,橘幼稚園
35.680561,139.397798,欣浄寺みのり幼稚園
35.568689,139.4290902,町田市立山崎保育園
35.734389,139.404129,武蔵みどり幼稚園
35.712979,139.567976,武蔵野中央幼稚園
35.713423,139.568254,武蔵野中央第二幼稚園
35.7177762,139.5460376,武蔵野大学附属幼稚園
35.70309,139.5498563,武蔵野平安幼稚園
35.714089,139.552061,武蔵野東第一幼稚園
35.701591,139.586364,武蔵野相愛幼稚園
35.708201,139.568199,武蔵野赤十字保育園
35.745366,139.661078,武蔵野音楽大学第一幼稚園
35.7482,139.674855,武蔵野音楽大学第二幼稚園
26.642098,142.154486,母島保育園
35.6905955,139.8164349,毛利保育園
35.7800323,139.8714457,水元保育園
35.788088,139.847255,水元八千代幼稚園
35.783338,139.857171,水元幼稚園
35.59283,139.732883,水神保育園
35.7333888,139.8159924,水神保育園
35.804974,139.798314,水神橋保育園
35.709539,139.742239,水道保育園
35.8061594,139.0953519,氷川保育園
35.752754,139.66405,氷川台保育園
35.7570136,139.6670703,氷川台第二保育園
35.653656,139.709106,永川保育園
35.647508,139.319028,永明院ルンビニ幼稚園
35.680818,139.641166,永福北保育園
35.671596,139.638972,永福南保育園
35.7359429,139.8057063,汐入とちのき保育園
35.714975,139.426433,江の島保育園
35.7764708,139.7569383,江北さくら幼稚園
35.773588,139.76168,江北保育園
35.7791102,139.7695443,江北白百合幼稚園
35.729146,139.675328,江原保育園
35.736007,139.673828,江古田幼稚園
35.718126,139.886532,江戸川こざくら幼稚園
35.677351,139.857703,江戸川めぐみ幼稚園
35.684187,139.901282,江戸川二丁目保育園
35.688242,139.903032,江戸川保育園
35.7376379,139.8853934,江戸川双葉幼稚園
35.7072268,139.7366687,江戸川幼稚園(休園中)
35.732762,139.885504,江戸川白百合幼稚園
35.683183,139.843482,江東めぐみ幼稚園
35.655991,139.814707,江東区潮見保育園
35.685405,139.813513,江東区猿江保育園
35.698403,139.796376,江東学園幼稚園
35.695764,139.807375,江東橋保育園
35.680849,139.811264,江東ＹＭＣＡ幼稚園
35.58994,139.69822,池上みどり幼稚園
35.567222,139.698471,池上長尾保育園
35.737119,139.709519,池袋いづみ幼稚園
35.735341,139.70513,池袋幼稚園
35.739146,139.720685,池袋第一保育園
35.735341,139.707714,池袋第三保育園
35.742507,139.712296,池袋第二保育園
35.734285,139.705158,池袋第五保育園
35.654904,139.645694,河田保育園
35.781019,139.286443,河辺保育園
35.781254,139.767429,沼田保育園
35.719675,139.665218,沼袋保育園
35.721063,139.665329,沼袋幼稚園
35.716953,139.658802,沼袋西保育園
35.7045163,139.567729,泉幼稚園
35.7790288,139.7134772,法善寺保育園
34.691544,139.441435,波浮保育園
35.650292,139.607864,泰成幼稚園
35.6721202,139.7610051,泰明幼稚園
35.6013247,139.6914206,洗心保育園
35.723642,139.471318,洗心幼稚園
35.609938,139.698747,洗足うさぎ幼稚園
35.703113,139.7416871,津久戸幼稚園
35.6743706,139.3209257,津久田保育園
35.723058,139.470012,津田保育園
35.685075,139.891533,浄興幼稚園
35.727674,139.66169,浄風幼稚園
35.644007,139.286364,浅川保育園
35.57872,139.728773,浅間幼稚園
35.715571,139.902086,浅間幼稚園
35.779866,139.879781,浜島幼稚園
35.597665,139.736184,浜川幼稚園
35.687372,139.625945,浜田山保育園
35.685488,139.791322,浜町保育園
35.790513,139.7030757,浮間保育園
35.789445,139.699296,浮間東保育園
35.7069334,139.4696161,浴光保育園
35.694401,139.689189,淀橋幼稚園
35.7038104,139.6906613,淀橋第四幼稚園
35.769559,139.687436,淑徳幼稚園
35.656293,139.668303,淡島幼稚園
35.67451,139.546619,深大寺保育園
35.677266,139.796376,深川一丁目保育園
35.657297,139.80818,深川愛隣保育園
35.620464,139.650584,深沢保育園
35.6162133,139.6545105,深沢幼稚園
35.738192,139.32433,清岩院幼稚園
35.7135267,139.7831854,清島幼稚園
35.724873,139.802763,清川保育園
35.740782,139.600556,清心幼稚園
35.661131,139.856343,清新第一保育園
35.6568408,139.8559076,清新第三保育園
35.65902,139.85687,清新第二保育園
35.590607,139.685943,清明幼稚園
35.7868173,139.7791094,清水保育園
35.611799,139.701358,清水台保育園
35.778608,139.499563,清瀬しらうめ幼稚園
35.789552,139.538726,清瀬たから幼稚園
35.788191,139.529199,清瀬ゆりかご幼稚園
35.766443,139.502147,清瀬上宮保育園
35.785441,139.517312,清瀬富士見幼稚園
35.774387,139.520645,清瀬市立駅前乳児保育園
35.706874,139.788987,済美幼稚園
35.7307602,139.8437089,渋江保育園
35.670876,139.709188,渋谷保育園
35.663793,139.703078,渋谷幼稚園
35.789032,139.796954,渕江保育園
35.7039282,139.7636826,湯島幼稚園
35.6963631,139.8656482,源法寺幼稚園
35.598079,139.727689,滝王子保育園
35.748507,139.7271,滝野川保育園
35.751478,139.728461,滝野川北保育園
35.746673,139.721545,滝野川西保育園
35.620241,139.626864,瀬田幼稚園
35.751785,139.769374,熊野前保育園
35.740066,139.858367,熊野幼稚園
35.733109,139.333246,牛浜幼稚園
35.6959867,139.723386,牛込仲之幼稚園
35.6982494,139.7225773,牛込成城幼稚園
35.68737,139.575893,牟礼幼稚園
35.687253,139.311471,犬目幼稚園
35.637654,139.568646,狛江こだま幼稚園
35.626545,139.590034,狛江みずほ幼稚園
35.64707,139.572728,狛江保育園
35.636222,139.5780502,狛江子どもの家
35.784881,139.354603,狭山保育園
35.717648,139.686161,獅子孔保育園
35.727328,139.8040461,玉姫保育園
35.617742,139.624087,玉川保育園
35.694921,139.390937,玉川保育園
35.5687186,139.4687094,玉川学園幼稚部幼稚園
35.607632,139.664,玉川小羊幼稚園
35.624602,139.614643,玉川幼稚園
35.6942931,139.5924085,玉成幼稚園
35.755356,139.310275,玉水保育園
35.761255,139.739154,王子保育園
35.7623704,139.7384861,王子北保育園
35.7538694,139.7286898,王子本町保育園
35.758499,139.7367368,王子隣保館保育園
35.74795,139.699519,瑞法幼稚園
35.772938,139.354881,瑞穂のぞみ幼稚園
35.591107,139.71283,瑞穂幼稚園
35.623213,139.642723,用賀なのはな保育園
35.624658,139.637168,用賀保育園
35.7100887,139.7931104,田原幼稚園
35.519471,139.466936,田園保育園
35.596495,139.671861,田園調布ルーテル幼稚園
35.595356,139.672889,田園調布二丁目保育園
35.587219,139.677111,田園調布保育園
35.598383,139.66675,田園調布幼稚園
35.59955,139.658528,田園調布雙葉小学校附属幼稚園
35.766863,139.637607,田柄保育園
35.765308,139.644718,田柄幼稚園
35.763642,139.644968,田柄第二保育園
35.743502,139.543783,田無乳児保育園
35.733948,139.5402,田無保育園
35.734837,139.543533,田無北原保育園
35.726282,139.526785,田無きたしば保育園
35.722838,139.527896,田無向ケ丘幼稚園
35.740984,139.7626554,田端さくら幼稚園
35.736703,139.756098,田端保育園
35.634602,139.706134,田道保育園
35.641231,139.338415,由井さゆり保育園
35.60843,139.381829,由木あすなろ保育園
35.630372,139.383384,由木保育園
35.680115,139.319832,甲ノ原保育園
35.746537,139.784596,町屋保育園
35.7476773,139.7875279,荒川区立 町屋幼稚園
35.602209,139.349721,町田すみれ幼稚園
35.540663,139.475519,町田わかくさ保育園
35.527747,139.467825,町田南保育園
35.5539736,139.4412806,町田文化幼稚園
35.783323,139.241197,畑中保育園
35.6876548,139.7335805,番町幼稚園
35.733782,139.583502,白ふじ幼稚園
35.724532,139.515925,白梅保育園
35.725308,139.451403,白梅幼稚園
35.6832627,139.7996637,白河保育園
35.663562,139.319305,白百合ベビーホーム
35.6958128,139.7443407,白百合学園幼稚園
35.623511,139.309502,白百合寺田保育園
35.600078,139.701302,白百合幼稚園
35.601189,139.679471,白菊幼稚園
35.644879,139.731021,白金保育園
35.635575,139.726549,港区立白金台幼稚園
35.755509,139.844257,白鳥保育園
35.693728,139.470152,白鳥幼稚園
35.724819,139.887504,白鳩保育園
35.737258,139.731906,白鳩幼稚園
35.7866406,139.6473334,白鳩福祉会白鳩保育園
35.725041,139.889143,白鳩第二保育園
35.721257,139.633026,白鷺保育園
35.758703,139.874976,白鷺保育園
35.703261,139.69816,百人町保育園
35.651152,139.539148,皐月保育園
35.71912,139.704103,目白ケ丘幼稚園
35.713566,139.720741,目白台保育園
35.72162,139.70077,目白平和幼稚園
35.722259,139.707353,目白幼稚園
35.723759,139.695687,目白第一保育園
35.723092,139.709353,目白第二保育園
35.631353,139.704884,目黒幼稚園
35.62527,139.695191,目黒本町保育園
35.778557,139.678798,相生保育園
35.667367,139.342386,省我保育園
35.729511,139.786125,真成幼稚園
35.620902,139.401161,真理学園幼稚園
35.635933,139.518513,矢の口幼稚園
35.559945,139.703721,矢口保育園
35.565651,139.7041565,矢口幼稚園
35.561529,139.689529,矢口第二保育園
35.663149,139.475931,矢崎幼稚園 (Yazaki Kindergarten)
35.686089,139.430406,矢川保育園
35.62102,139.707274,石井保育園
35.671173,139.361301,石川保育園
35.741036,139.744849,石川幼稚園
35.725402,139.807596,石浜幼稚園
35.7693,139.356298,石畑保育園
35.7369568,139.6097531,石神井保育園
35.72795,139.602251,石神井南幼稚園
35.735537,139.5898168,石神井台保育園
35.7401388,139.5862171,石神井台第二保育園
35.748475,139.599167,石神井幼稚園
35.744087,139.599222,石神井町さくら保育園
35.745337,139.601694,石神井町つつじ保育園
35.7850914,139.8226607,石鍋幼稚園
35.76473,139.83909,砂原保育園
35.678489,139.830955,砂町保育園
35.680683,139.834483,砂町友愛園
35.647182,139.607781,砧保育園
35.631323,139.604393,砧幼稚園
35.6272173,139.6895829,碑文谷教会付属幼稚園
35.740483,139.885198,社会福祉法人ベタニヤホーム富士見保育園
35.698202,139.561228,社会福祉法人ユーカリ福祉会三鷹市立三鷹駅前保育園
35.769531,139.688853,社会福祉法人前野常磐会前野保育園
35.659007,139.347858,社会福祉法人月峰会つくし保育園
35.683517,139.862952,船堀中央保育園
35.779331,139.516701,社会福祉法人清朗会すみれ保育園
35.729396,139.685466,社会福祉法人育和会しいの実保育園
35.639074,139.694857,祐天寺保育園
35.636324,139.696441,祐天寺附属幼稚園
35.656791,139.600753,祖師谷保育園
35.745228,139.671161,神の教会保育園
35.660707,139.56995,神代保育園
35.667515,139.705189,神宮前保育園
35.764361,139.545754,神山幼稚園
35.738107,139.288416,神明保育園
35.686627,139.797128,神明幼稚園
35.794587,139.83495,神明町保育園
35.772115,139.726766,神谷保育園
35.711761,139.746461,福寿幼稚園
35.794197,139.782482,福寿院幼稚園
35.787101,139.260612,福島学園幼稚園
35.7692976,139.3618209,福正寺松濤幼稚園
35.745774,139.321107,福生多摩幼稚園
35.746219,139.327357,福生市立すみれ保育園
35.72125,139.33058,福生市立つくし保育園
35.726332,139.337051,福生市立熊川保育園
35.74283,139.325496,福生市立福生保育園
35.74308,139.332634,福生本町保育園
35.73597,139.329413,福生杉ノ子保育園
35.675403,139.679691,福田幼稚園
35.708153,139.822261,福神橋保育園
35.733803,139.301526,秋川あすなろ保育園
35.725469,139.257058,秋川幼稚園
35.726579,139.2682698,秋川文化幼稚園
35.777302,139.484231,認定こども園　秋津幼稚園
35.782557,139.67477,稚竹幼稚園
35.723779,139.424738,立川かしの木幼稚園
35.692088,139.390603,立川たんぽぽ保育園
35.726778,139.379853,立川ひかり保育園
35.712586,139.426405,立川みどり幼稚園
35.690376,139.799405,立川保育園
35.725668,139.41635,立川双葉幼稚園
35.7044412,139.4155732,立川幼稚園
35.7047561,139.8317342,立花幼稚園
35.7248878,139.7661534,立華学苑
35.789532,139.800259,竹の塚保育園
35.799669,139.793898,竹の塚北保育園
35.7948897,139.7950792,竹塚幼稚園
35.706068,139.779987,竹町幼稚園
35.6985933,139.8223967,第一亀戸幼稚園
35.753416,139.473483,第一保育園
35.768471,139.51384,第一保育園
35.717455,139.755016,第一幼稚園
35.7193026,139.6445734,第一若宮幼稚園
35.765256,139.786844,第一若草幼稚園
35.563805,139.72133,第一蒲田保育園
35.752527,139.477149,第七保育園
35.76761,139.511451,第七保育園
35.6623722,139.3693715,第七幼稚園
35.621575,139.681109,第三ひもんや保育園
35.779671,139.763429,第三上沼田保育園
35.76347,139.451929,第三保育園
35.798134,139.53906,第三保育園
35.691377,139.843759,第三大島幼稚園
35.7212324,139.820821,第三寺島幼稚園
35.549864,139.733025,第三蒲田保育園
35.789517,139.226338,第二あけぼの幼稚園
35.763448,139.683492,第二たつの子保育園
35.622214,139.688831,第二ひもんや保育園
35.7736434,139.7653377,上沼田保育園
35.642212,139.697413,第二上目黒保育園
35.695459,139.830177,第二亀戸幼稚園
35.737585,139.483371,第二保育園
35.7304082,139.7979137,第二南千住保育園
35.680038,139.582115,第二小羊チャイルドセンター
35.649787,139.38605,第二幼稚園
35.714571,139.901337,第二押上幼稚園
35.75137,139.811482,第二日ノ出町保育園
35.764062,139.773068,扇こころ保育園
35.730011,139.789374,第二東日暮里保育園
35.636547,139.710939,第二田道保育園
35.770248,139.7903957,専念寺幼稚園
35.559556,139.72733,第二蒲田保育園
35.650847,139.560257,第五保育園
35.779275,139.484953,第五保育園
35.787413,139.529922,第五保育園
35.66087,139.422602,第五幼稚園
35.6714508,139.8388024,第五砂町幼稚園
35.764192,139.465789,第八保育園
35.750583,139.463206,第四保育園
35.780914,139.50173,第四保育園
35.642765,139.519234,第１保育園
35.637836,139.5013747,本郷ゆうし保育園
35.622461,139.485099,稲城市立第三保育園
35.646513,139.493763,第４保育園
35.611852,139.486794,第五保育園
35.645374,139.49943,第６保育園
35.677152,139.665886,笹塚保育園
35.672903,139.666942,笹塚幼稚園
35.672208,139.667164,笹塚第二保育園
35.608937,139.658389,等々力保育園
35.6662776,139.7683254,築地保育園
35.69263,139.905782,篠崎保育園
35.702546,139.912475,篠崎幼稚園
35.7082713,139.9095224,篠崎若葉幼稚園
35.770997,139.467622,精心幼稚園
35.707896,139.557005,精華保育園
35.558696,139.736135,糀谷保育園
35.556529,139.735941,糀谷幼稚園
35.776307,139.662966,紅梅保育園
35.742872,139.871894,細田保育園
35.648376,139.62814,経堂保育園
35.665012,139.593365,給田保育園
35.670234,139.592059,給田幼稚園
35.7731291,139.6791461,緑が丘保育園
35.5966832,139.7286491,緑の家保育園
35.755032,139.682631,緑ケ丘幼稚園
35.60941,139.674499,緑丘保育園
35.6940745,139.80134,緑幼稚園
35.745426,139.792345,緑町保育園
35.753058,139.606388,練馬ひかり幼稚園
35.730451,139.650246,練馬二葉保育園
35.742172,139.651385,練馬保育園
35.75853,139.607999,練馬白菊幼稚園
35.749638,139.460595,美住幼稚園
35.576554,139.738106,美原保育園
35.67262,139.466764,美好保育所
35.687141,139.250505,美山保育園
35.767047,139.8405521,美松学園幼稚園
35.761022,139.320357,羽村たつの子保育園
35.776492,139.298136,羽村まつの木保育園
35.757301,139.333995,羽村善隣幼稚園
35.660737,139.655721,羽根木幼稚園
35.693255,139.429628,羽衣保育園
35.675097,139.688051,聖ゼフ保育園
35.623824,139.620965,聖ドミニコ学園幼稚園
35.7295196,139.6970546,聖パトリック幼稚園
35.720654,139.6390831,聖ピオ保育園
35.7718511,139.8420235,聖フランシスコ幼稚園
35.790722,139.663993,聖マリア保育園
35.6681,139.776933,聖ヨゼフ幼稚園
35.806529,139.772733,聖保育園
35.660118,139.34097,聖公会八王子幼稚園
35.74626,139.812205,聖和幼稚園
35.71426,139.726574,聖園幼稚園
35.740758,139.74921,聖学院幼稚園
35.645907,139.743436,聖徳学園三田幼稚園
35.639647,139.303668,聖徳学園八王子中央幼稚園
35.714729,139.610834,聖心保育園
35.699371,139.652692,聖心学園幼稚園
35.723111,139.337746,聖愛幼稚園
35.687075,139.907643,聖明幼稚園
35.772951,139.840423,聖母のさゆり保育園
35.760616,139.726294,聖母の騎士保育園
35.779031,139.723433,聖母の騎士幼稚園
35.7925193,139.2696241,聖母幼稚園
35.710005,139.507398,聖霊幼稚園 (Seirei Kindergarten)
35.7352378,139.403476,育成会ひまわり保育園
35.7415468,139.3979301,育成会めぐみ保育園
35.668042,139.667109,育成幼稚園
35.628852,139.68397,育英幼稚園
35.699819,139.785543,育英幼稚園
35.6488881,139.7163377,臨川幼稚園
35.6510961,139.8613529,臨海第一保育園
35.6433572,139.8688915,臨海第二保育園
35.697568,139.718159,至誠会保育園
35.751452,139.766514,至誠会第二保育園
35.684284,139.417601,至誠保育園
35.680256,139.407602,至誠第二保育園
35.766673,139.77754,興南幼稚園
35.71518,139.817761,興望館保育園
35.770617,139.780206,興野保育園
35.8038896,139.7749919,舎人幼稚園
35.795416,139.689241,舟渡保育園
35.683211,139.856925,船堀保育園
35.678296,139.866202,船堀幼稚園
35.654792,139.62764,船橋東保育園
35.658375,139.615447,船橋西保育園
35.6855556,139.8609568,船堀第三保育園
35.684767,139.865313,船越第二保育園
35.724615,139.526396,芝久保保育園
35.6480435,139.7476187,芝保育園
35.654184,139.750602,芝公園保育園
35.669762,139.608252,芦花保育園
35.66518,139.613058,芦花幼稚園
35.763721,139.488842,花さき保育園
35.597574,139.463046,花の木保育園
35.736612,139.7728112,花の木幼稚園
35.72468,139.814623,花園保育園
35.6895872,139.7132022,花園幼稚園
35.7341733,139.5102262,花小金井保育園
35.729114,139.515258,花小金井愛育園
35.714707,139.800263,花川戸保育園
35.807558,139.809563,花畑保育園
35.803669,139.81809,花畑八千代幼稚園
35.813529,139.821534,花畑桑袋保育園
35.770225,139.674298,若木保育園
35.63013,139.692997,若水幼稚園
35.669486,139.669664,若竹保育園
35.611021,139.689164,若竹幼稚園
33.10574,139.785457,若草保育園
35.728092,139.73635,若草保育園
35.591774,139.728162,若草幼稚園
35.613048,139.66711,若草幼稚園
35.657767,139.722271,若葉会幼稚園
35.72611,139.342162,若葉保育園
35.627653,139.468738,若葉台バオバブ保育園
34.423319,139.283646,若郷保育園
35.7489667,139.6768908,茂呂塾保育園
35.5703266,139.4487491,草笛保育園
35.739089,139.3032753,草花保育園
35.7393145,139.3040836,草花幼稚園
35.724287,139.706659,草苑幼稚園
35.61666,139.708996,荏原保育園
35.61391,139.706163,荏原西保育園
35.737372,139.786125,荒川さつき保育園
35.7401623,139.7748733,荒川保育園
35.734622,139.795901,荒川若葉幼稚園
35.698703,139.612529,荻窪保育園
35.701731,139.623583,荻窪東保育園
35.650045,139.695218,菅刈保育園
35.6892383,139.8108106,菊川保育園
35.691626,139.807625,菊川幼稚園
35.552418,139.723914,萩中保育園
35.748562,139.708907,落合幼稚園
35.760611,139.538255,落合幼稚園
35.7198185,139.6912061,落合第一幼稚園
35.7202598,139.6830197,落合第三幼稚園
35.7269484,139.6788637,落合第六幼稚園
35.7172795,139.7005256,落合第四幼稚園
35.677268,139.857009,葛西めぐみ幼稚園
35.673352,139.875452,葛西第二保育園
35.664048,139.873535,葛西駅前さくら保育園
35.741164,139.841631,葛飾こどもの園幼稚園
35.746177,139.87481,葛飾しらゆり学園幼稚園
35.741927,139.87931,葛飾みどり幼稚園
35.7568277,139.8508017,葛飾やまびこ幼稚園
35.761452,139.834063,葛飾学園
35.719957,139.852563,葛飾白百合幼稚園
35.73865,139.874421,葛飾若草幼稚園
35.552668,139.714137,蒲田ルーテル幼稚園
35.563805,139.720608,蒲田幼稚園
35.558751,139.71497,蒲田本町保育園
35.5694205,139.7127211,蒲田音楽学園保育園
35.781307,139.676548,蓮根保育園
35.703513,139.792875,蔵前幼稚園
35.69629,139.724853,薬王寺保育園
35.72115,139.763293,藍染保育園
35.572603,139.450519,藤の台幼稚園
35.6488092,139.3404762,藤井保育園
35.642126,139.569785,藤塚保育園
35.721911,139.3901933,藤幼稚園
35.572943,139.713747,藤美幼稚園
35.613494,139.720023,行慶寺ルンビニ幼稚園
35.784557,139.705962,袋保育園
35.715091,139.617389,裕和幼稚園
35.7665626,139.7141124,西が丘保育園
35.744868,139.734072,西ケ原保育園
35.744702,139.741821,西ケ原東保育園
35.6073127,139.7081676,西中延保育園
35.710507,139.561588,西久保保育園
35.67265,139.596642,西之谷保育園
35.760925,139.840534,西亀有保育園
35.62652,139.716856,西五反田保育園
35.802058,139.799786,西保木間保育園
35.689145,139.434183,西保育園
35.771576,139.300192,西保育園
35.765281,139.683353,西前野保育園
35.6727907,139.6777149,西原保育園
35.733531,139.527201,西原保育園
35.779085,139.670021,西台保育園
35.614994,139.726161,西品川保育園
35.693088,139.424684,西国立保育園
35.6006939,139.7215033,西大井保育園
35.7594622,139.5787878,西大泉保育園
35.732651,139.874755,西小岩保育園
35.736928,139.87706,西小岩幼稚園
35.7322338,139.8794171,西小岩第二保育園
35.698404,139.86398,西小松川保育園
35.756176,139.8173479,西小菅幼稚園
35.7442852,139.7614234,西尾久みどり保育園
35.748952,139.761098,荒川区立 西尾久保育園
35.7388321,139.7278255,西巣鴨幼稚園
35.736341,139.72649,西巣鴨第三保育園
35.735564,139.729462,西巣鴨第二保育園
35.714541,139.840176,西平井保育園
35.677258,139.456126,西府保育所
35.638211,139.640279,西弦巻保育園
35.708871,139.695688,西戸山幼稚園
35.7849429,139.7797426,西新井保育園
35.7774819,139.7786671,西新井幼稚園
35.775366,139.77865,西新井教会保育園
35.777532,139.775456,西新井本町保育園
35.688651,139.684329,西新宿保育園
35.6855725,139.6879101,西新宿子ども園
35.721096,139.848563,西新小岩保育園
35.7365992,139.7706382,西日暮里保育園
35.7104,139.721241,西早稲田保育園
35.726203,139.708519,西池袋第一保育園
35.729175,139.698881,西池袋第二保育園
35.695038,139.626861,西田保育園
35.694954,139.62375,西田幼稚園
35.729666,139.364688,西砂保育園
35.722914,139.27714,西秋留保育園
35.5603684,139.7300459,西糀谷しろはと保育園
35.762674,139.818508,西綾瀬保育園
35.70223,139.598669,西荻まこと幼稚園
35.707286,139.602585,西荻北保育園
35.705341,139.601224,西荻学園幼稚園
35.719731,139.679578,西落合保育園
35.568721,139.710525,西蒲田保育園
35.691814,139.536536,西野保育園
35.726368,139.632693,西鷺宮保育園
35.660794,139.722715,西麻布保育園
35.737396,139.686521,要町保育園
35.736757,139.697714,要町幼稚園
35.727417,139.398768,見影橋保育園
35.770701,139.842617,親愛幼稚園
35.762785,139.791483,親隣館保育園
35.6822854,139.6143677,角笛幼稚園
35.725691,139.25978,誠和保育園
35.654097,139.578089,調布たちばな幼稚園
35.6605616,139.5738202,調布るんびに幼稚園
35.663345,139.564395,調布上ノ原保育園
35.639238,139.559481,調布多摩川幼稚園
35.595273,139.680666,調布幼稚園
35.666372,139.545452,調布星美幼稚園
35.658096,139.578422,調布白菊幼稚園
35.643987,139.555647,調布若竹幼稚園
35.695254,139.404935,諏訪の森保育園
35.67792,139.288779,諏訪保育園
35.622653,139.450768,諏訪幼稚園
35.723815,139.739239,諸聖徒幼稚園
35.722594,139.771376,谷中保育園
35.729593,139.764987,谷中幼稚園
35.750392,139.610693,谷原保育園
35.789559,139.768623,谷在家保育園
35.740836,139.545227,谷戸幼稚園
35.7405575,139.697088,豊南幼稚園
35.728063,139.679189,豊多摩幼稚園
35.7636569,139.5316083,豊島なでしこ幼稚園
35.764839,139.744154,豊島保育園
35.766505,139.750264,豊島北保育園
35.7649971,139.7548416,豊島東保育園
35.761256,139.742126,豊川保育園
35.653963,139.798875,豊洲幼稚園
35.6538413,139.7719085,豊海幼稚園
35.732617,139.650108,豊玉保育園
35.729284,139.64958,豊玉第三保育園
35.7360333,139.6501518,豊玉第二保育園
35.730785,139.661384,豊玉第四保育園
35.655376,139.649416,豪徳寺保育園
35.614348,139.440241,貝取保育園
35.7163664,139.7348167,貞静幼稚園
35.698006,139.4944,貫井保育園
35.742171,139.627359,貫井保育園
35.740949,139.631442,貫井第二保育園
35.54505,139.448715,赤ちゃんの家保育園
35.671043,139.734019,赤坂保育園
35.7048631,139.736327,赤城幼稚園
35.660292,139.641389,赤堤保育園
35.65832,139.643528,赤堤幼稚園
35.77664,139.643801,赤塚保育園
35.771724,139.645245,赤塚幼稚園
35.773307,139.63844,赤塚新町保育園
35.7857256,139.7151059,赤羽北保育園
35.653184,139.74238,赤羽幼稚園
35.778947,139.718877,赤羽幼稚園
35.773142,139.714045,赤羽西保育園
35.781228,139.820869,足立あおい幼稚園
35.780811,139.806731,足立つくし幼稚園
35.802141,139.774344,足立つばめ幼稚園
35.807695,139.766706,足立みどり幼稚園
35.7756452,139.760849,足立サレジオ幼稚園
35.762034,139.777456,足立双葉幼稚園
35.747787,139.794317,足立幼稚園
35.765895,139.783928,足立愛育幼稚園
35.765313,139.829674,足立白うめ幼稚園
35.7588814,139.7527811,東京白百合幼稚園
35.7652199,139.835101,足立若葉保育園
35.6192395,139.6259913,身延山保育園
35.667706,139.572394,車台保育園
35.6464553,139.8107348,辰巳幼稚園
35.648187,139.811374,辰巳第三保育園
35.648964,139.810708,辰巳第二保育園
35.784783,139.835312,辰沼保育園
35.703486,139.850426,逆井保育園
35.7548373,139.5734514,進幼稚園
35.76223,139.843173,道上保育園
35.5584564,139.7080009,道塚幼稚園
35.758225,139.616498,道灌山保育園
35.7334092,139.7631066,道灌山幼稚園
35.775498,139.498147,野塩保育園
35.685926,139.543368,野崎保育園
35.709316,139.656497,野方保育園
35.721869,139.657246,野方北保育園
35.713286,139.661441,野方学院幼稚園
35.655374,139.57345,金子保育園
35.7720108,139.8745171,金町保育園
35.766285,139.864227,金町幼稚園
35.718623,139.790597,金竜幼稚園
35.792435,139.297247,鈴の音保育園
35.7244232,139.5055005,鈴木保育園
35.6105891,139.6371371,鈴蘭幼稚園
35.596912,139.672611,銀の鈴幼稚園
35.62443,139.446101,錦秋幼稚園
35.747871,139.879504,鎌倉保育園
35.735845,139.817206,鐘ケ淵北保育園
35.680648,139.538397,長久寺学園幼稚園
35.779854,139.326995,長岡保育園
35.728869,139.688771,長崎保育園
35.731313,139.685493,長崎幼稚園
35.694013,139.734213,長延保育園
35.6560825,139.2949703,長房中央保育園
35.6539127,139.2967188,長房南保育所
35.6546723,139.2895704,長房西保育園
35.569749,139.682556,長明保育園
35.641621,139.36383,長沼幼稚園
35.72468,139.825566,長浦保育園
35.778463,139.274722,長渕保育園
35.569825,139.445103,開進幼稚園
35.7245557,139.5748919,関町ちぐさ幼稚園
35.719867,139.576448,関町カトレヤ幼稚園
35.721145,139.581725,関町保育園
35.729532,139.573808,関町白百合幼稚園
35.725533,139.570309,関町第二保育園
35.6796826,139.7765555,阪本こども園
35.7116517,139.6335867,阿佐谷保育園
35.7149112,139.6383201,阿佐谷北保育園
35.702981,139.628944,阿佐谷南保育園
35.709731,139.641943,阿佐谷幼稚園
35.702065,139.639776,阿佐谷東保育園
35.749478,139.69402,陽光保育園
35.770062,139.850006,隅田学園
35.720176,139.721824,雑司が谷保育園
35.7206626,139.7201665,雑司ケ谷幼稚園
35.686569,139.73238,雙葉小学校附属幼稚園
35.592079,139.689915,雪ケ谷ルーテル幼稚園
35.686571,139.801516,雲柱神社愛保育園
35.66696,139.741797,霊南坂幼稚園
35.620269,139.620559,青い空保育園
35.7371057,139.6209101,青い鳥保育園
32.4662934,139.7635043,青ケ島村保育所
35.77259,139.819702,青井保育園
35.663516,139.716993,青南幼稚園
35.6610281,139.7117409,青山学院幼稚園
35.751898,139.853367,青戸保育園
35.746982,139.849923,青戸福祉保育園
35.7134167,139.7291907,青柳保育園
35.72151,139.724824,青柳幼稚園
35.7884762,139.2831503,青梅みどり第一保育園
35.7913483,139.2824277,青梅ゆりかご保育園
35.7818359,139.2915689,青梅幼稚園
35.779297,139.29097,青梅梨の木保育園
35.789184,139.255584,青梅福祉会 青梅保育園
35.644155,139.647889,青葉学園幼稚園
35.6394345,139.5194303,青葉幼稚園
35.7499626,139.85616,青鳩幼稚園
35.665256,139.333082,静教保育園
35.720788,139.72749,音羽幼稚園
35.708702,139.609195,頌栄保育園
35.7517,139.698325,風の子保育園
35.744257,139.73996,飛鳥すみれ幼稚園
35.655851,139.743547,飯倉保育園
35.7768489,139.858573,飯塚幼稚園
35.701512,139.748489,飯田橋保育園
35.6304553,139.2867948,館ヶ丘保育園
35.699704,139.645526,馬橋保育園
35.585941,139.702942,馬込なかよし幼稚園
35.593912,139.709663,馬込保育園
35.589302,139.716107,馬込幼稚園
35.632877,139.581617,駄倉保育園
35.624407,139.58759,駒井保育園
35.656544,139.686552,駒場保育園
35.655655,139.684441,駒場幼稚園
35.780546,139.252363,駒木野保育園
35.633657,139.665304,駒沢保育園
35.729649,139.760626,駒込保育園
35.7409281,139.738793,駒込第一保育園
35.737481,139.747821,駒込第三保育園
35.735953,139.738017,駒込第二保育園
35.6485281,139.5603392,駿河台大学第一幼稚園
35.6832164,139.6249421,高井戸東保育園
35.68826,139.610557,高井戸西子供園
35.666451,139.368856,高倉保育園
35.7083657,139.652968,高円寺北保育園
35.706948,139.653159,高円寺北子供園
35.704982,139.651247,高円寺南保育園
35.700649,139.660775,高円寺東保育園
35.682064,139.6387897,高千穂幼稚園
35.715205,139.716686,高南保育園
35.765035,139.806454,高和保育園
35.693035,139.490428,高城山保育園
35.669315,139.471875,高安寺保育園
35.643118,139.274282,高尾保育園
35.69012,139.575393,高山保育園
35.7923685,139.6646576,高島平あやめ保育園
35.785501,139.669548,高島平かえで保育園
35.7865,139.662493,高島平けやき保育園
35.787611,139.67327,高島平さつき保育園
35.786584,139.66466,高島平すみれ保育園
35.783751,139.665049,高島平つくし保育園
35.7840445,139.6611224,高島平つぼみ保育園
35.789222,139.654744,高島平もみじ保育園
35.750004,139.625331,高松保育園
35.7587212,139.6163067,高松幼稚園
35.741673,139.695964,高松第一保育園
35.736146,139.69877,高松第二保育園
35.712621,139.696077,高田馬場第一保育園
35.710955,139.709159,高田馬場第二保育園
35.546808,139.710444,高畑保育園
35.7525187,139.8695048,高砂保育園
35.633131,139.735687,高輪保育園
35.63538,139.735271,高輪幼稚園
35.7443817,139.6125194,高野台保育園
35.6698022,139.5981184,鳥山保育園
35.677428,139.601864,鳥山北保育園
35.664874,139.60603,鳥山杉の子保育園
35.680903,139.703411,鳩の森保育園
35.642017,139.674303,鳩ぽっぽ保育園
35.5748255,139.6853552,鵜の木いまいずみ保育園
35.577304,139.683889,鵜ノ木幼稚園
35.69298,139.538313,鶏鳴幼稚園
35.652128,139.701967,鶯谷さくら幼稚園
35.584187,139.475212,鶴川シオン幼稚園
35.5822417,139.4948594,フェリシア幼稚園フェリシアこども短期大学附属
35.59091,139.484684,鶴川平和台幼稚園
35.7081951,139.7245004,鶴巻幼稚園
35.520443,139.469464,鶴間幼稚園
35.628353,139.687053,鷹番保育園
35.721646,139.639026,鷺宮学園幼稚園
35.786058,139.753263,鹿浜保育園
35.785475,139.754596,鹿浜幼稚園
35.7798111,139.7493041,鹿浜愛育幼稚園
35.707545,139.89406,鹿骨二丁目保育園
35.709961,139.88731,鹿骨保育園
35.687875,139.742768,麹町保育園
35.6855256,139.7400675,麹町幼稚園
35.755499,139.479121,麻の実幼稚園
35.659266,139.725271,麻布みこころ幼稚園
35.656073,139.730437,麻布保育園
35.653989,139.73277,麻布山幼稚園
35.6614402,139.7383033,麻布幼稚園
35.719227,139.542145,黄河会サムエル保育園
35.745371,139.833203,黎明保育園
35.7884209,139.8356447,黒川幼稚園
35.7845282,139.7748882,黒田幼稚園
35.774919,139.669687,（財）日本婦人衛生会第一保育園
35.6582722,139.5313802,西調布保育園
35.5712956,139.4362075,カナリヤ保育園
35.7016743,139.6359056,MOMOの家保育園 ゆらりん
35.7735841,139.5069024,日本社会事業大学附属子ども学園
35.7169945,139.6588292,沼袋西保育園
35.7817308,139.6456765,麦の子保育園
35.6558952,139.7006707,四谷大塚
35.7149657,139.6383383,阿佐ヶ谷北保育園
35.7145813,139.637854,のぞみ幼稚園
35.6388763,139.6744765,三軒茶屋保育園
35.6922031,139.4683402,にしこくワンダーランド保育園
35.6438334,139.611586,小田急ムック保育園 祖師谷園
35.641055,139.608061,雲母保育園
35.672684,139.6787783,Little Pumpkins Day Care
35.7035037,139.5280118,3匹の熊の家
35.6715057,139.606606,芦花ゆりかご保育園
35.6666883,139.8329331,新砂保育園
35.5894857,139.7067272,まごめ共同保育所
35.6428581,139.6968291,明日葉保育園
35.6597075,139.5129312,みどりの音楽堂
35.7059136,139.6176234,ピノキオ 荻窪園
35.745416,139.407942,聖光緑が丘保育園
35.66543,139.360328,敬愛ハーモニー保育園
35.6018422,139.6999275,ながはら さくらさく ほいくえん
35.6552626,139.6996505,桜上宮保育園
35.682637,139.689158,パレット保育園
35.699988,139.50679,にじいろ保育園
35.720223,139.391363,上砂保育園
35.724211,139.450285,白梅幼稚園
35.61776,139.7035383,なないろ保育園
35.6273811,139.7204069,学研こども園
35.5825466,139.7195843,美奈見ここわ保育園
35.5950749,139.7008749,マミーズエンジェル 上池台第二保育園
35.6776159,139.675359,カナリー保育園
35.5947633,139.6908161,大田区立雪谷保育園
35.6581156,139.5744511,ポピンズナーサリースクール
35.7527997,139.4314,狭山ヶ丘幼稚園
35.755292,139.8252489,小菅東保育園
35.6757171,139.5893251,せたがや小鳥の森保育園
35.7495189,139.8262764,小谷野しょうぶ保育園
35.6720275,139.5996151,ラフクルー烏山保育園
35.68215,139.715439,新宿三つの木保育園
35.6955491,139.696819,ルーチェ保育室
35.665076,139.673227,東北沢桔梗保育園
35.6709765,139.4580886,西府の森保育園
35.742092,139.328186,ちゃいれっく 福生駅前保育園
35.685859,139.522033,やまびこ保育園
35.675012,139.419684,至誠いしだ保育園
35.6776366,139.7089917,鳩の森八幡幼稚園
35.7841768,139.6665493,雲母保育園高島平
35.7768058,139.7259937,赤羽保育園
35.7766848,139.733468,つちっこ保育園
35.6640262,139.6397158,早苗保育園 分園ほなみ
35.7690317,139.6612956,メリーポピンズ
35.6683195,139.3800684,吹上多摩平保育園
35.6675842,139.7160558,ポポラー
35.7901674,139.6608004,高島平くるみ保育園
35.573982,139.679184,アスク うのき 保育園
35.5850931,139.6813775,アスク おんたけ 保育園
35.5705882,139.6949853,ヤクルト 保育園
35.679361,139.428541,あおいとり保育園
35.68151,139.48551,みのり保育園
35.664178,139.413163,たかはた北保育園
35.5499151,139.7067884,西二なかよし 保育園
35.6649927,139.7183389,南青山保育園
35.6544656,139.7971014,日生豊洲駅前保育園 びびき
35.6806842,139.6287733,杉並の家保育園 浜田山第二分館
35.5457227,139.4468851,太陽の子 町田駅前保育園
35.7172331,139.7935334,チェリッシュ浅草保育園
35.6562006,139.6538932,成育しせい保育園梅丘分園
35.6567868,139.6549234,犬の幼稚園
35.6002949,139.6926235,マミーズエンジェル 上池台保育園
35.7844988,139.7744631,レインボー保育園
35.7008571,139.5248239,駅前コスモ保育園
35.6960115,139.6502088,梅里保育園
35.5968388,139.6548952,尾山台保育園
35.7575405,139.8324558,Takenoko hoikuen
35.6185285,139.7043137,ウィズブック保育園武蔵小山
35.6572077,139.7957053,ゆらりん豊三保育園
35.709637,139.669355,ピノキオ
35.5990467,139.6835821,たんぽぽ保育園
35.6805152,139.7851571,コビープリスクールはこざき
35.6882036,139.7427671,千代田区麹町保育園
35.6303663,139.4385065,みらい保育園
35.6912232,139.5786996,時の子保育園
35.6942178,139.8971642,若葉インターナショナルナーサリー
35.6639853,139.7166411,港区第二青南保育室
35.6407172,139.3409744,星の子保育園
35.5841866,139.7012079,Kids Duo International 池上
35.7011194,139.6319034,保育室南阿佐ケ谷第二
35.7373215,139.7609448,田端聖華保育園
35.6664638,139.3715237,バディ八王子東
35.732081,139.5392437,雲母保育園
35.701026,139.6811165,にじいろキッズ保育園
35.6587477,139.5297085,子供の家こすずめ保育園
35.6966063,139.8213941,わくわくbase
35.6965714,139.8208979,おはよう保育園亀戸
35.6916751,139.815691,テンダーラビング保育園 住吉
35.7619635,139.7257237,小規模認可サンライズキッズ保育園
35.7013831,139.7702913,神田寺幼稚園
35.6641173,139.8735148,サクラナーサリー
35.6995273,139.7751816,早稲田塾
35.6855671,139.6213442,すぎっこ保育園
35.6663623,139.7082264,じんぐまえあおぞらこどもえん
35.7070851,139.7710618,台東区立黒門幼稚園
35.7489972,139.6422036,寿福寺幼稚園
35.5701217,139.4449743,開進こども保育園
35.7396199,139.7767025,荒川区立 花の木幼稚園
35.723415,139.7751082,チェリッシュ 上野の森保育園
35.7397362,139.5853659,アスク石神井台保育園
35.7476007,139.5822778,わらべうた大泉学園保育園
35.7071854,139.7577419,リックキッズ
35.7070281,139.7575723,たんぽぽ保育園本郷分園
35.6922061,139.6339754,うぃず成田東保育園
35.7188067,139.7667191,スターキッズ 谷中保育園
35.8056324,139.7679634,てのひら保育園
35.8053693,139.7755775,舎人保育園
35.7051789,139.7637162,I & C Kids School
35.5809581,139.6857045,クオリスキッズくがはら保育園
35.7140885,139.7664102,忍岡こども園 学び舎
35.7038918,139.763727,私立たんぽぽ保育園分園
35.5938819,139.7135291,おおたみんなの家保育園
35.7419078,139.805535,せきや保育園
35.5211818,139.471593,南ヶ丘幼稚園
35.6150457,139.7076077,平塚幼稚園
35.7383841,139.7153356,太陽の子 池袋本町保育園
35.7418693,139.4401031,向原保育園
35.7511836,139.7329054,音無つぼみ保育園
35.6884595,139.9025591,江戸川保育園
35.7475494,139.8058099,キッズ大陸 あだち北千住園
35.6378316,139.7462137,芝浦幼稚園
35.6949318,139.910657,南篠崎おひさま保育園
35.686234,139.8648384,みのりのわかば保育園
35.6357317,139.7113394,目黒保育園
35.6960166,139.8975642,輝きベビー保育園
35.6017985,139.6958117,えがおの森保育園・かみいけだい
35.658859,139.7574054,港区立神明保育園
35.6812264,139.6102156,よくふう保育園
35.723266,139.715308,東京音楽大学 付属幼稚園
35.6678033,139.7314703,中之町幼稚園
35.5885506,139.7069745,ヤクルト保育園西馬込
35.7387119,139.6883574,アスクかなめ町保育園
35.664845,139.8568646,ちゃいれっく
35.7510044,139.6856217,板橋区立 大谷口保育園
35.7220967,139.7006659,目白平和幼稚園
35.566344,139.4312288,木曽保育園
35.564329,139.4515695,山ゆり幼稚園
35.5469042,139.4482064,なごみ保育園
35.6822371,139.6160145,ハーモニーキッズ
35.6889253,139.6061052,あい保育園久我山
35.6946442,139.6047138,小規模保育事業所 宮前北
35.7614044,139.5813484,大泉小鳩幼稚園
35.7026268,139.6710516,ヤクルト保育園中野
35.7593457,139.5669561,茶々おおいずみ保育園
35.7560188,139.566269,CO-春保育園
35.7595029,139.5272083,わらべ東久留米幼稚園
35.709282,139.6883271,陽だまりの丘 保育園
35.7158403,139.6986495,キッズタウン下落合保育園
35.7004084,139.5618863,保育園さくら
35.6321321,139.5034036,城山保育園南山
35.6364639,139.4993835,メリーポピンズ稲城ルーム（本園）
35.6357957,139.5014711,メリーポピンズ稲城ルーム（分園）
35.7347402,139.5882313,上石神井にじのいろ保育園
35.740922,139.7955232,うぃず千住大橋駅前保育園
35.5551577,139.7089675,新蒲田保育園
35.7736765,139.7734008,興本保育園
35.70918,139.6721817,中野ここわ保育園
35.705877,139.6165377,ゆうりん 荻窪保育園
35.7062495,139.6162031,ゆうりん荻窪第二園舎
35.7253527,139.4437897,たのしい森保育園
35.7347966,139.3681118,なすび保育園
35.7305093,139.7211881,森のなかま保育園 東池袋ルーム
35.7471677,139.5850267,にじいろ保育園 大泉学園南
35.7878975,139.7826406,うぃず西新井保育園
35.7732553,139.8273107,綾瀬なないろ園
35.7450795,139.7960424,あいほいくえん
35.74442,139.7858321,聖華町屋保育園
35.57093,139.4960856,夢の森幼稚園
35.6839474,139.5508678,KidsDuo International
35.6643817,139.518318,ふちしらコスモ保育園
35.7421381,139.8537959,かつしか風の子保育園
35.750576,139.8524159,太陽の子 青戸中央保育園
35.7541026,139.8447829,白鳥ふたば保育園
35.7086268,139.5092091,まなびの森保育園
35.7577096,139.742318,ゆうひがおか保育園豊島
35.7301315,139.5399479,ビーファ田無保育園
35.7353555,139.7709865,まなびの森保育園西日暮里
35.7303638,139.8822325,どんぐり保育園
35.753767,139.3262894,加美平保育園
35.7355405,139.7162455,かみいけ保育園
35.736996,139.7175404,かみいけぶくろ保育園
35.6918593,139.7203669,曙橋保育園
35.6669904,139.7167432,Clarence International School
35.6574434,139.5895869,仙川教会子どもの家
35.7028295,139.671567,ピノッキオ保育園
35.6967298,139.6620968,新渡戸文化幼稚園
35.6933856,139.614585,宮前おおぞら保育園
35.5666358,139.4241001,第二わかくさ保育園
35.7386736,139.3741196,つむぎ保育園
35.7306567,139.7896843,なかよし保育園
35.6261609,139.4427937,こぐま保育園
35.7138452,139.5826342,立野かがやき保育園
35.727744,139.545325,たかなしすくすく保育園
35.6855606,139.5877026,にじいろ保育園
35.7703894,139.6345052,東京光が丘インターナショナルプレスクール
35.5710023,139.411531,まなざし保育園
35.7373245,139.7725187,上智生ローザ保育園
35.5142671,139.4702362,子どもの森南町田保育園
35.7179406,139.5942948,杉並元氣保育園
35.5902204,139.7284092,青い鳥
35.6488397,139.7133198,遍照広尾保育園
35.6208704,139.4863631,しおどめ保育園稲城
35.6021963,139.365865,町田多摩境雲母保育園
35.6034696,139.3657992,プチもり保育園
35.6013559,139.3648505,多摩境敬愛保育園
35.5120809,139.4691326,もりのこ第一･第二保育園
35.5115798,139.4678509,南町田みつたま保育園
35.5477714,139.4483042,未来保育CLUB
35.7169212,139.4807886,小平一橋学園雲母保育園
35.706933,139.788992,ことぶきこども園
35.7853746,139.2686285,ちがせ保育園
35.7300768,139.4850305,ゆりの子保育園
35.5118489,139.4700416,もりのおうち保育園
35.7326964,139.6999893,やまのみ池袋保育園
35.6395252,139.7490203,アスク芝浦４丁目保育園
35.5875661,139.4818439,みどりの森保育園
35.6409576,139.748964,アオバジャパン・バイリンガルプリスクール芝浦キャンパス
35.7289198,139.5423907,アルタベビー田無園
35.5751146,139.4111046,つぼみ保育室
35.7669324,139.3619905,とのがや保育園
35.5460822,139.4494361,つながり保育園
35.6895618,139.7830561,FUTURE 児童園 日本橋
35.7631253,139.8007362,やちよ幼稚園
35.632038,139.5758323,いずみの森保育園
35.7029237,139.6683958,なかのまるのなか保育園
35.8061219,139.8148518,レイモンド保育園
35.6834111,139.7200715,しなのまちこども園
35.7011157,139.5149003,雲母保育園
35.5350998,139.4720867,わかくさのおうち
